{
"type": "FeatureCollection",
"name": "topologie-des-points-darret-de-bus-du-reseau-star",
"features": [
{ "type": "Feature", "properties": { "id": "1009", "nom": "Metz Volney", "codeinseecommune": "35238", "mobilier": "Abri simple" }, "geometry": { "type": "Point", "coordinates": [ -1.663205, 48.121619 ] } },
{ "type": "Feature", "properties": { "id": "1014", "nom": "Bertrand", "codeinseecommune": "35238", "mobilier": "Poteau" }, "geometry": { "type": "Point", "coordinates": [ -1.679038, 48.113739 ] } },
{ "type": "Feature", "properties": { "id": "1017", "nom": "La Criée", "codeinseecommune": "35238", "mobilier": "Poteau" }, "geometry": { "type": "Point", "coordinates": [ -1.680208, 48.108412 ] } },
{ "type": "Feature", "properties": { "id": "1020", "nom": "Mermoz", "codeinseecommune": "35238", "mobilier": "Abri simple" }, "geometry": { "type": "Point", "coordinates": [ -1.689588, 48.097428 ] } },
{ "type": "Feature", "properties": { "id": "1023", "nom": "La Criée", "codeinseecommune": "35238", "mobilier": "Abri double" }, "geometry": { "type": "Point", "coordinates": [ -1.680059, 48.108106 ] } },
{ "type": "Feature", "properties": { "id": "1024", "nom": "République Nemours", "codeinseecommune": "35238", "mobilier": "Abri bâti" }, "geometry": { "type": "Point", "coordinates": [ -1.6803, 48.109965 ] } },
{ "type": "Feature", "properties": { "id": "1029", "nom": "Jules Ferry", "codeinseecommune": "35238", "mobilier": "Abri double" }, "geometry": { "type": "Point", "coordinates": [ -1.671037, 48.118224 ] } },
{ "type": "Feature", "properties": { "id": "1031", "nom": "Metz Volney", "codeinseecommune": "35238", "mobilier": "Abri simple" }, "geometry": { "type": "Point", "coordinates": [ -1.662166, 48.122002 ] } },
{ "type": "Feature", "properties": { "id": "1042", "nom": "Cimetière Nord", "codeinseecommune": "35238", "mobilier": "Abri simple" }, "geometry": { "type": "Point", "coordinates": [ -1.681724, 48.123939 ] } },
{ "type": "Feature", "properties": { "id": "1044", "nom": "Pierre Legrand", "codeinseecommune": "35238", "mobilier": "Abri simple" }, "geometry": { "type": "Point", "coordinates": [ -1.685931, 48.122159 ] } },
{ "type": "Feature", "properties": { "id": "1046", "nom": "Anatole France", "codeinseecommune": "35238", "mobilier": "Abri simple" }, "geometry": { "type": "Point", "coordinates": [ -1.689411, 48.11822 ] } },
{ "type": "Feature", "properties": { "id": "1047", "nom": "La Touche", "codeinseecommune": "35238", "mobilier": "Abri simple" }, "geometry": { "type": "Point", "coordinates": [ -1.691294, 48.116099 ] } },
{ "type": "Feature", "properties": { "id": "1057", "nom": "Laënnec", "codeinseecommune": "35238", "mobilier": "Abri simple" }, "geometry": { "type": "Point", "coordinates": [ -1.667062, 48.104729 ] } },
{ "type": "Feature", "properties": { "id": "1064", "nom": "Lycée Descartes", "codeinseecommune": "35238", "mobilier": "Abri simple" }, "geometry": { "type": "Point", "coordinates": [ -1.645018, 48.090301 ] } },
{ "type": "Feature", "properties": { "id": "1071", "nom": "Haut Sancé", "codeinseecommune": "35238", "mobilier": "Abri simple" }, "geometry": { "type": "Point", "coordinates": [ -1.63689, 48.096238 ] } },
{ "type": "Feature", "properties": { "id": "1073", "nom": "Ronceray", "codeinseecommune": "35238", "mobilier": "Abri simple" }, "geometry": { "type": "Point", "coordinates": [ -1.639646, 48.092525 ] } },
{ "type": "Feature", "properties": { "id": "1078", "nom": "Lycée Descartes", "codeinseecommune": "35238", "mobilier": "Abri simple" }, "geometry": { "type": "Point", "coordinates": [ -1.64467, 48.089988 ] } },
{ "type": "Feature", "properties": { "id": "1081", "nom": "Bourgeois", "codeinseecommune": "35238", "mobilier": "Abri platine" }, "geometry": { "type": "Point", "coordinates": [ -1.65533, 48.09805 ] } },
{ "type": "Feature", "properties": { "id": "1082", "nom": "Piré", "codeinseecommune": "35238", "mobilier": "Abri auvent" }, "geometry": { "type": "Point", "coordinates": [ -1.657795, 48.099882 ] } },
{ "type": "Feature", "properties": { "id": "1092", "nom": "Les Lices", "codeinseecommune": "35238", "mobilier": "Abri simple" }, "geometry": { "type": "Point", "coordinates": [ -1.686216, 48.111759 ] } },
{ "type": "Feature", "properties": { "id": "1094", "nom": "Brest Verdun", "codeinseecommune": "35238", "mobilier": "Abri simple" }, "geometry": { "type": "Point", "coordinates": [ -1.693296, 48.113228 ] } },
{ "type": "Feature", "properties": { "id": "1097", "nom": "Pierre Legrand", "codeinseecommune": "35238", "mobilier": "Abri simple" }, "geometry": { "type": "Point", "coordinates": [ -1.685863, 48.122048 ] } },
{ "type": "Feature", "properties": { "id": "1106", "nom": "Gayeulles Piscine", "codeinseecommune": "35238", "mobilier": "Abri simple" }, "geometry": { "type": "Point", "coordinates": [ -1.652208, 48.134244 ] } },
{ "type": "Feature", "properties": { "id": "1107", "nom": "Le Blizz", "codeinseecommune": "35238", "mobilier": "Abri double" }, "geometry": { "type": "Point", "coordinates": [ -1.652111, 48.130831 ] } },
{ "type": "Feature", "properties": { "id": "1112", "nom": "Vitré Danton", "codeinseecommune": "35238", "mobilier": "Abri simple" }, "geometry": { "type": "Point", "coordinates": [ -1.651101, 48.118917 ] } },
{ "type": "Feature", "properties": { "id": "1134", "nom": "Canada", "codeinseecommune": "35238", "mobilier": "Abri double" }, "geometry": { "type": "Point", "coordinates": [ -1.682269, 48.085244 ] } },
{ "type": "Feature", "properties": { "id": "1136", "nom": "Champs Manceaux", "codeinseecommune": "35238", "mobilier": "Abri double" }, "geometry": { "type": "Point", "coordinates": [ -1.682008, 48.091103 ] } },
{ "type": "Feature", "properties": { "id": "1138", "nom": "Garigliano", "codeinseecommune": "35238", "mobilier": "Abri simple" }, "geometry": { "type": "Point", "coordinates": [ -1.68155, 48.096382 ] } },
{ "type": "Feature", "properties": { "id": "1146", "nom": "Thabor", "codeinseecommune": "35238", "mobilier": "Poteau" }, "geometry": { "type": "Point", "coordinates": [ -1.671085, 48.111888 ] } },
{ "type": "Feature", "properties": { "id": "1157", "nom": "Gayeulles Piscine", "codeinseecommune": "35238", "mobilier": "Abri simple" }, "geometry": { "type": "Point", "coordinates": [ -1.651955, 48.134935 ] } },
{ "type": "Feature", "properties": { "id": "1159", "nom": "Hôtel de Région", "codeinseecommune": "35238", "mobilier": "Abri simple" }, "geometry": { "type": "Point", "coordinates": [ -1.658777, 48.134366 ] } },
{ "type": "Feature", "properties": { "id": "1161", "nom": "Plaine de Baud", "codeinseecommune": "35238", "mobilier": "Abri simple" }, "geometry": { "type": "Point", "coordinates": [ -1.644207, 48.112228 ] } },
{ "type": "Feature", "properties": { "id": "1165", "nom": "Paul Bert", "codeinseecommune": "35238", "mobilier": "Abri simple" }, "geometry": { "type": "Point", "coordinates": [ -1.670239, 48.110107 ] } },
{ "type": "Feature", "properties": { "id": "1167", "nom": "République", "codeinseecommune": "35238", "mobilier": "Abri simple" }, "geometry": { "type": "Point", "coordinates": [ -1.678792, 48.109398 ] } },
{ "type": "Feature", "properties": { "id": "1175", "nom": "Beaulieu Chimie", "codeinseecommune": "35238", "mobilier": "Abri simple" }, "geometry": { "type": "Point", "coordinates": [ -1.633914, 48.117116 ] } },
{ "type": "Feature", "properties": { "id": "1183", "nom": "Hôtel Dieu", "codeinseecommune": "35238", "mobilier": "Abri simple" }, "geometry": { "type": "Point", "coordinates": [ -1.678821, 48.117342 ] } },
{ "type": "Feature", "properties": { "id": "1188", "nom": "La Salle", "codeinseecommune": "35238", "mobilier": "Abri simple" }, "geometry": { "type": "Point", "coordinates": [ -1.701959, 48.114898 ] } },
{ "type": "Feature", "properties": { "id": "1191", "nom": "Languedoc", "codeinseecommune": "35238", "mobilier": "Abri simple" }, "geometry": { "type": "Point", "coordinates": [ -1.704469, 48.115476 ] } },
{ "type": "Feature", "properties": { "id": "1199", "nom": "Musset Cité U", "codeinseecommune": "35238", "mobilier": "Abri simple" }, "geometry": { "type": "Point", "coordinates": [ -1.662813, 48.116241 ] } },
{ "type": "Feature", "properties": { "id": "1203", "nom": "Beaulieu - Université", "codeinseecommune": "35238", "mobilier": "Abri simple" }, "geometry": { "type": "Point", "coordinates": [ -1.639178, 48.122306 ] } },
{ "type": "Feature", "properties": { "id": "1208", "nom": "Saint-Saëns", "codeinseecommune": "35238", "mobilier": "Abri simple" }, "geometry": { "type": "Point", "coordinates": [ -1.637817, 48.104159 ] } },
{ "type": "Feature", "properties": { "id": "1212", "nom": "Mouézy", "codeinseecommune": "35238", "mobilier": "Abri simple" }, "geometry": { "type": "Point", "coordinates": [ -1.656566, 48.10195 ] } },
{ "type": "Feature", "properties": { "id": "1216", "nom": "Le Mail", "codeinseecommune": "35238", "mobilier": "Abri auvent" }, "geometry": { "type": "Point", "coordinates": [ -1.690184, 48.109226 ] } },
{ "type": "Feature", "properties": { "id": "1230", "nom": "Jardin Moderne", "codeinseecommune": "35238", "mobilier": "Abri simple" }, "geometry": { "type": "Point", "coordinates": [ -1.728358, 48.101792 ] } },
{ "type": "Feature", "properties": { "id": "1234", "nom": "Roazhon Park", "codeinseecommune": "35238", "mobilier": "Abri simple" }, "geometry": { "type": "Point", "coordinates": [ -1.71477, 48.107699 ] } },
{ "type": "Feature", "properties": { "id": "1242", "nom": "République", "codeinseecommune": "35238", "mobilier": "Abri double" }, "geometry": { "type": "Point", "coordinates": [ -1.679475, 48.109765 ] } },
{ "type": "Feature", "properties": { "id": "1243", "nom": "Croix Saint-Hélier", "codeinseecommune": "35238", "mobilier": "Abri simple" }, "geometry": { "type": "Point", "coordinates": [ -1.661, 48.10247 ] } },
{ "type": "Feature", "properties": { "id": "1245", "nom": "Serpette", "codeinseecommune": "35238", "mobilier": "Abri simple" }, "geometry": { "type": "Point", "coordinates": [ -1.652557, 48.103198 ] } },
{ "type": "Feature", "properties": { "id": "1256", "nom": "Bellangerais", "codeinseecommune": "35238", "mobilier": "Abri simple" }, "geometry": { "type": "Point", "coordinates": [ -1.671592, 48.132604 ] } },
{ "type": "Feature", "properties": { "id": "1268", "nom": "Boberil", "codeinseecommune": "35238", "mobilier": "Poteau" }, "geometry": { "type": "Point", "coordinates": [ -1.693637, 48.083743 ] } },
{ "type": "Feature", "properties": { "id": "1275", "nom": "Mermoz", "codeinseecommune": "35238", "mobilier": "Abri simple" }, "geometry": { "type": "Point", "coordinates": [ -1.68857, 48.097441 ] } },
{ "type": "Feature", "properties": { "id": "1284", "nom": "Houx Cité U", "codeinseecommune": "35238", "mobilier": "Abri simple" }, "geometry": { "type": "Point", "coordinates": [ -1.664427, 48.131094 ] } },
{ "type": "Feature", "properties": { "id": "1288", "nom": "Neruda", "codeinseecommune": "35238", "mobilier": "Abri simple" }, "geometry": { "type": "Point", "coordinates": [ -1.6706, 48.136646 ] } },
{ "type": "Feature", "properties": { "id": "1304", "nom": "Cucillé - Frac", "codeinseecommune": "35238", "mobilier": "Abri simple" }, "geometry": { "type": "Point", "coordinates": [ -1.698678, 48.128505 ] } },
{ "type": "Feature", "properties": { "id": "1305", "nom": "Olympe de Gouges", "codeinseecommune": "35238", "mobilier": "Abri double" }, "geometry": { "type": "Point", "coordinates": [ -1.703285, 48.127525 ] } },
{ "type": "Feature", "properties": { "id": "1309", "nom": "Berger", "codeinseecommune": "35238", "mobilier": "Abri simple" }, "geometry": { "type": "Point", "coordinates": [ -1.704796, 48.116726 ] } },
{ "type": "Feature", "properties": { "id": "1313", "nom": "Beaulieu - Université", "codeinseecommune": "35238", "mobilier": "Poteau" }, "geometry": { "type": "Point", "coordinates": [ -1.638325, 48.12219 ] } },
{ "type": "Feature", "properties": { "id": "1316", "nom": "Raison", "codeinseecommune": "35238", "mobilier": "Abri simple" }, "geometry": { "type": "Point", "coordinates": [ -1.652908, 48.101172 ] } },
{ "type": "Feature", "properties": { "id": "1318", "nom": "Landry", "codeinseecommune": "35238", "mobilier": "Poteau" }, "geometry": { "type": "Point", "coordinates": [ -1.646019, 48.099112 ] } },
{ "type": "Feature", "properties": { "id": "1323", "nom": "CARSAT", "codeinseecommune": "35238", "mobilier": "Abri simple" }, "geometry": { "type": "Point", "coordinates": [ -1.6381, 48.095478 ] } },
{ "type": "Feature", "properties": { "id": "1328", "nom": "Lycée Mendès France", "codeinseecommune": "35238", "mobilier": "Abri double" }, "geometry": { "type": "Point", "coordinates": [ -1.685248, 48.132964 ] } },
{ "type": "Feature", "properties": { "id": "1336", "nom": "Bigot de Préameneu", "codeinseecommune": "35238", "mobilier": "Abri auvent" }, "geometry": { "type": "Point", "coordinates": [ -1.666379, 48.097984 ] } },
{ "type": "Feature", "properties": { "id": "1342", "nom": "Pologne", "codeinseecommune": "35238", "mobilier": "Abri simple" }, "geometry": { "type": "Point", "coordinates": [ -1.651727, 48.09118 ] } },
{ "type": "Feature", "properties": { "id": "1346", "nom": "Hôpital Sud", "codeinseecommune": "35238", "mobilier": "Abri simple" }, "geometry": { "type": "Point", "coordinates": [ -1.655241, 48.084718 ] } },
{ "type": "Feature", "properties": { "id": "1359", "nom": "Landrel", "codeinseecommune": "35238", "mobilier": "Abri simple" }, "geometry": { "type": "Point", "coordinates": [ -1.655629, 48.091473 ] } },
{ "type": "Feature", "properties": { "id": "1373", "nom": "Hôtel de Région", "codeinseecommune": "35238", "mobilier": "Poteau" }, "geometry": { "type": "Point", "coordinates": [ -1.65936, 48.135248 ] } },
{ "type": "Feature", "properties": { "id": "1374", "nom": "Longs Prés", "codeinseecommune": "35238", "mobilier": "Abri simple" }, "geometry": { "type": "Point", "coordinates": [ -1.65694, 48.133147 ] } },
{ "type": "Feature", "properties": { "id": "1377", "nom": "Trégain", "codeinseecommune": "35238", "mobilier": "Abri double" }, "geometry": { "type": "Point", "coordinates": [ -1.658595, 48.126799 ] } },
{ "type": "Feature", "properties": { "id": "1397", "nom": "Dargent", "codeinseecommune": "35238", "mobilier": "Abri simple" }, "geometry": { "type": "Point", "coordinates": [ -1.700391, 48.103586 ] } },
{ "type": "Feature", "properties": { "id": "1398", "nom": "Voltaire", "codeinseecommune": "35238", "mobilier": "Abri simple" }, "geometry": { "type": "Point", "coordinates": [ -1.698705, 48.105221 ] } },
{ "type": "Feature", "properties": { "id": "1401", "nom": "Redon", "codeinseecommune": "35238", "mobilier": "Abri simple" }, "geometry": { "type": "Point", "coordinates": [ -1.687696, 48.105572 ] } },
{ "type": "Feature", "properties": { "id": "1402", "nom": "Cité Judiciaire", "codeinseecommune": "35238", "mobilier": "Abri simple" }, "geometry": { "type": "Point", "coordinates": [ -1.685227, 48.105635 ] } },
{ "type": "Feature", "properties": { "id": "1406", "nom": "Les Gayeulles", "codeinseecommune": "35238", "mobilier": "Abri simple" }, "geometry": { "type": "Point", "coordinates": [ -1.656455, 48.130311 ] } },
{ "type": "Feature", "properties": { "id": "1417", "nom": "Les Arts", "codeinseecommune": "35238", "mobilier": "Abri simple" }, "geometry": { "type": "Point", "coordinates": [ -1.712895, 48.111176 ] } },
{ "type": "Feature", "properties": { "id": "1439", "nom": "Bourgeois", "codeinseecommune": "35238", "mobilier": "Abri simple" }, "geometry": { "type": "Point", "coordinates": [ -1.655114, 48.098248 ] } },
{ "type": "Feature", "properties": { "id": "1442", "nom": "Binquenais", "codeinseecommune": "35238", "mobilier": "Abri double" }, "geometry": { "type": "Point", "coordinates": [ -1.667346, 48.091656 ] } },
{ "type": "Feature", "properties": { "id": "1453", "nom": "Pigeon Blanc", "codeinseecommune": "35281", "mobilier": "Abri simple" }, "geometry": { "type": "Point", "coordinates": [ -1.692985, 48.089788 ] } },
{ "type": "Feature", "properties": { "id": "1463", "nom": "Binquenais Collège", "codeinseecommune": "35238", "mobilier": "Abri simple" }, "geometry": { "type": "Point", "coordinates": [ -1.663099, 48.091335 ] } },
{ "type": "Feature", "properties": { "id": "1477", "nom": "Gares", "codeinseecommune": "35238", "mobilier": "Abri double" }, "geometry": { "type": "Point", "coordinates": [ -1.671736, 48.104056 ] } },
{ "type": "Feature", "properties": { "id": "1481", "nom": "Pâtis Tatelin", "codeinseecommune": "35238", "mobilier": "Abri simple" }, "geometry": { "type": "Point", "coordinates": [ -1.642228, 48.129802 ] } },
{ "type": "Feature", "properties": { "id": "1502", "nom": "Agrocampus", "codeinseecommune": "35238", "mobilier": "Abri simple" }, "geometry": { "type": "Point", "coordinates": [ -1.705467, 48.113952 ] } },
{ "type": "Feature", "properties": { "id": "1506", "nom": "Berthault", "codeinseecommune": "35238", "mobilier": "Abri simple" }, "geometry": { "type": "Point", "coordinates": [ -1.730303, 48.106758 ] } },
{ "type": "Feature", "properties": { "id": "1511", "nom": "La Poterie", "codeinseecommune": "35238", "mobilier": "Abri double" }, "geometry": { "type": "Point", "coordinates": [ -1.643522, 48.087557 ] } },
{ "type": "Feature", "properties": { "id": "1521", "nom": "Berry", "codeinseecommune": "35238", "mobilier": "Abri simple" }, "geometry": { "type": "Point", "coordinates": [ -1.713828, 48.118445 ] } },
{ "type": "Feature", "properties": { "id": "1527", "nom": "Primauguet", "codeinseecommune": "35238", "mobilier": "Abri auvent" }, "geometry": { "type": "Point", "coordinates": [ -1.649988, 48.114569 ] } },
{ "type": "Feature", "properties": { "id": "1528", "nom": "Piletière", "codeinseecommune": "35238", "mobilier": "Abri simple" }, "geometry": { "type": "Point", "coordinates": [ -1.644449, 48.113985 ] } },
{ "type": "Feature", "properties": { "id": "1534", "nom": "Henri Fréville", "codeinseecommune": "35238", "mobilier": "Abri double" }, "geometry": { "type": "Point", "coordinates": [ -1.674399, 48.088589 ] } },
{ "type": "Feature", "properties": { "id": "1539", "nom": "Lemaistre", "codeinseecommune": "35238", "mobilier": "Abri simple" }, "geometry": { "type": "Point", "coordinates": [ -1.725074, 48.10716 ] } },
{ "type": "Feature", "properties": { "id": "1556", "nom": "République", "codeinseecommune": "35238", "mobilier": "Abri auvent" }, "geometry": { "type": "Point", "coordinates": [ -1.677653, 48.109394 ] } },
{ "type": "Feature", "properties": { "id": "1563", "nom": "République", "codeinseecommune": "35238", "mobilier": "Abri simple" }, "geometry": { "type": "Point", "coordinates": [ -1.67816, 48.109716 ] } },
{ "type": "Feature", "properties": { "id": "1567", "nom": "Charles de Gaulle", "codeinseecommune": "35238", "mobilier": "Abri simple" }, "geometry": { "type": "Point", "coordinates": [ -1.677467, 48.106251 ] } },
{ "type": "Feature", "properties": { "id": "1571", "nom": "Coeur de Courrouze", "codeinseecommune": "35238", "mobilier": "Abri simple" }, "geometry": { "type": "Point", "coordinates": [ -1.699454, 48.09827 ] } },
{ "type": "Feature", "properties": { "id": "1572", "nom": "Vincennes", "codeinseecommune": "35238", "mobilier": "Abri auvent" }, "geometry": { "type": "Point", "coordinates": [ -1.675247, 48.118011 ] } },
{ "type": "Feature", "properties": { "id": "1573", "nom": "Mermoz", "codeinseecommune": "35238", "mobilier": "Abri simple" }, "geometry": { "type": "Point", "coordinates": [ -1.690258, 48.09706 ] } },
{ "type": "Feature", "properties": { "id": "1587", "nom": "Cité Judiciaire", "codeinseecommune": "35238", "mobilier": "Abri simple" }, "geometry": { "type": "Point", "coordinates": [ -1.685223, 48.105429 ] } },
{ "type": "Feature", "properties": { "id": "1588", "nom": "Jules Maniez", "codeinseecommune": "35238", "mobilier": "Abri simple" }, "geometry": { "type": "Point", "coordinates": [ -1.703651, 48.098153 ] } },
{ "type": "Feature", "properties": { "id": "1603", "nom": "Les Préales", "codeinseecommune": "35238", "mobilier": "Abri double" }, "geometry": { "type": "Point", "coordinates": [ -1.641269, 48.1132 ] } },
{ "type": "Feature", "properties": { "id": "1609", "nom": "Tournebride", "codeinseecommune": "35238", "mobilier": "Abri simple" }, "geometry": { "type": "Point", "coordinates": [ -1.636509, 48.114205 ] } },
{ "type": "Feature", "properties": { "id": "1611", "nom": "Redon", "codeinseecommune": "35238", "mobilier": "Abri simple" }, "geometry": { "type": "Point", "coordinates": [ -1.688365, 48.105382 ] } },
{ "type": "Feature", "properties": { "id": "1614", "nom": "Assomption", "codeinseecommune": "35238", "mobilier": "Poteau" }, "geometry": { "type": "Point", "coordinates": [ -1.657834, 48.122614 ] } },
{ "type": "Feature", "properties": { "id": "1649", "nom": "La Poterie", "codeinseecommune": "35238", "mobilier": "Abri simple" }, "geometry": { "type": "Point", "coordinates": [ -1.643387, 48.087521 ] } },
{ "type": "Feature", "properties": { "id": "1650", "nom": "La Poterie", "codeinseecommune": "35238", "mobilier": "Abri simple" }, "geometry": { "type": "Point", "coordinates": [ -1.643163, 48.087477 ] } },
{ "type": "Feature", "properties": { "id": "1651", "nom": "Jacques Cartier", "codeinseecommune": "35238", "mobilier": "Poteau" }, "geometry": { "type": "Point", "coordinates": [ -1.675159, 48.09711 ] } },
{ "type": "Feature", "properties": { "id": "1663", "nom": "Gares", "codeinseecommune": "35238", "mobilier": "Abri provisoire" }, "geometry": { "type": "Point", "coordinates": [ -1.670598, 48.104211 ] } },
{ "type": "Feature", "properties": { "id": "1665", "nom": "Atalante Champeaux", "codeinseecommune": "35238", "mobilier": "Poteau" }, "geometry": { "type": "Point", "coordinates": [ -1.713683, 48.113205 ] } },
{ "type": "Feature", "properties": { "id": "1666", "nom": "Atalante Champeaux", "codeinseecommune": "35238", "mobilier": "Abri simple" }, "geometry": { "type": "Point", "coordinates": [ -1.71356, 48.113386 ] } },
{ "type": "Feature", "properties": { "id": "1672", "nom": "Meynier", "codeinseecommune": "35238", "mobilier": "Abri simple" }, "geometry": { "type": "Point", "coordinates": [ -1.707938, 48.128019 ] } },
{ "type": "Feature", "properties": { "id": "1673", "nom": "Parc Beauregard", "codeinseecommune": "35238", "mobilier": "Abri simple" }, "geometry": { "type": "Point", "coordinates": [ -1.703853, 48.13117 ] } },
{ "type": "Feature", "properties": { "id": "1678", "nom": "Malraux", "codeinseecommune": "35238", "mobilier": "Abri simple" }, "geometry": { "type": "Point", "coordinates": [ -1.703096, 48.133645 ] } },
{ "type": "Feature", "properties": { "id": "1680", "nom": "Meynier", "codeinseecommune": "35238", "mobilier": "Abri auvent" }, "geometry": { "type": "Point", "coordinates": [ -1.708141, 48.128506 ] } },
{ "type": "Feature", "properties": { "id": "1701", "nom": "Anatole France", "codeinseecommune": "35238", "mobilier": "Abri simple" }, "geometry": { "type": "Point", "coordinates": [ -1.687136, 48.118326 ] } },
{ "type": "Feature", "properties": { "id": "1707", "nom": "Place Pasteur", "codeinseecommune": "35238", "mobilier": "Abri auvent" }, "geometry": { "type": "Point", "coordinates": [ -1.674531, 48.110815 ] } },
{ "type": "Feature", "properties": { "id": "1712", "nom": "Mabilais", "codeinseecommune": "35238", "mobilier": "Abri simple" }, "geometry": { "type": "Point", "coordinates": [ -1.693459, 48.105451 ] } },
{ "type": "Feature", "properties": { "id": "1729", "nom": "Metz Volney", "codeinseecommune": "35238", "mobilier": "Poteau" }, "geometry": { "type": "Point", "coordinates": [ -1.66266, 48.121573 ] } },
{ "type": "Feature", "properties": { "id": "1738", "nom": "Joliot-Curie", "codeinseecommune": "35238", "mobilier": "Poteau" }, "geometry": { "type": "Point", "coordinates": [ -1.651999, 48.126064 ] } },
{ "type": "Feature", "properties": { "id": "1749", "nom": "Saint-Georges", "codeinseecommune": "35238", "mobilier": "Poteau" }, "geometry": { "type": "Point", "coordinates": [ -1.675349, 48.112376 ] } },
{ "type": "Feature", "properties": { "id": "1758", "nom": "Durafour Leclerc", "codeinseecommune": "35238", "mobilier": "Abri simple" }, "geometry": { "type": "Point", "coordinates": [ -1.655552, 48.114701 ] } },
{ "type": "Feature", "properties": { "id": "1765", "nom": "Buffon", "codeinseecommune": "35238", "mobilier": "Poteau" }, "geometry": { "type": "Point", "coordinates": [ -1.711658, 48.10345 ] } },
{ "type": "Feature", "properties": { "id": "2008", "nom": "La Coulée", "codeinseecommune": "35051", "mobilier": "Abri simple" }, "geometry": { "type": "Point", "coordinates": [ -1.604539, 48.123603 ] } },
{ "type": "Feature", "properties": { "id": "2009", "nom": "Fontenelle", "codeinseecommune": "35051", "mobilier": "Abri simple" }, "geometry": { "type": "Point", "coordinates": [ -1.608241, 48.123576 ] } },
{ "type": "Feature", "properties": { "id": "2010", "nom": "Mare Pavée", "codeinseecommune": "35051", "mobilier": "Abri simple" }, "geometry": { "type": "Point", "coordinates": [ -1.610892, 48.122708 ] } },
{ "type": "Feature", "properties": { "id": "2011", "nom": "Maison d'Accueil", "codeinseecommune": "35051", "mobilier": "Abri simple" }, "geometry": { "type": "Point", "coordinates": [ -1.609895, 48.121043 ] } },
{ "type": "Feature", "properties": { "id": "2021", "nom": "Hublais", "codeinseecommune": "35051", "mobilier": "Abri simple" }, "geometry": { "type": "Point", "coordinates": [ -1.613697, 48.114196 ] } },
{ "type": "Feature", "properties": { "id": "2028", "nom": "La Coulée", "codeinseecommune": "35051", "mobilier": "Poteau" }, "geometry": { "type": "Point", "coordinates": [ -1.604052, 48.123506 ] } },
{ "type": "Feature", "properties": { "id": "2029", "nom": "Bourgchevreuil", "codeinseecommune": "35051", "mobilier": "Abri simple" }, "geometry": { "type": "Point", "coordinates": [ -1.600578, 48.12307 ] } },
{ "type": "Feature", "properties": { "id": "2032", "nom": "Charmilles", "codeinseecommune": "35051", "mobilier": "Abri simple" }, "geometry": { "type": "Point", "coordinates": [ -1.621325, 48.106218 ] } },
{ "type": "Feature", "properties": { "id": "2039", "nom": "Bordage", "codeinseecommune": "35051", "mobilier": "Abri simple" }, "geometry": { "type": "Point", "coordinates": [ -1.600468, 48.114439 ] } },
{ "type": "Feature", "properties": { "id": "2041", "nom": "Cesson Collège", "codeinseecommune": "35051", "mobilier": "Abri simple" }, "geometry": { "type": "Point", "coordinates": [ -1.599528, 48.120507 ] } },
{ "type": "Feature", "properties": { "id": "2042", "nom": "Les Lacs", "codeinseecommune": "35051", "mobilier": "Poteau" }, "geometry": { "type": "Point", "coordinates": [ -1.613096, 48.124672 ] } },
{ "type": "Feature", "properties": { "id": "2044", "nom": "Belle Fontaine", "codeinseecommune": "35051", "mobilier": "Abri simple" }, "geometry": { "type": "Point", "coordinates": [ -1.624328, 48.127353 ] } },
{ "type": "Feature", "properties": { "id": "2045", "nom": "Atalante", "codeinseecommune": "35051", "mobilier": "Poteau" }, "geometry": { "type": "Point", "coordinates": [ -1.628368, 48.127339 ] } },
{ "type": "Feature", "properties": { "id": "2046", "nom": "Atalante", "codeinseecommune": "35051", "mobilier": "Abri simple" }, "geometry": { "type": "Point", "coordinates": [ -1.62793, 48.127296 ] } },
{ "type": "Feature", "properties": { "id": "2051", "nom": "Chalotais", "codeinseecommune": "35051", "mobilier": "Poteau" }, "geometry": { "type": "Point", "coordinates": [ -1.60066, 48.11601 ] } },
{ "type": "Feature", "properties": { "id": "2052", "nom": "Lycée Ozanam", "codeinseecommune": "35051", "mobilier": "Abri simple" }, "geometry": { "type": "Point", "coordinates": [ -1.596975, 48.131215 ] } },
{ "type": "Feature", "properties": { "id": "2071", "nom": "Calendrou", "codeinseecommune": "35051", "mobilier": "Abri simple" }, "geometry": { "type": "Point", "coordinates": [ -1.616947, 48.140361 ] } },
{ "type": "Feature", "properties": { "id": "2084", "nom": "Verger", "codeinseecommune": "35051", "mobilier": "Poteau" }, "geometry": { "type": "Point", "coordinates": [ -1.604791, 48.129024 ] } },
{ "type": "Feature", "properties": { "id": "2111", "nom": "Touche sur Roche", "codeinseecommune": "35051", "mobilier": "Poteau" }, "geometry": { "type": "Point", "coordinates": [ -1.586888, 48.097971 ] } },
{ "type": "Feature", "properties": { "id": "2128", "nom": "Ménouriais", "codeinseecommune": "35051", "mobilier": "Poteau" }, "geometry": { "type": "Point", "coordinates": [ -1.603037, 48.099769 ] } },
{ "type": "Feature", "properties": { "id": "2132", "nom": "Cesson - Viasilva", "codeinseecommune": "35051", "mobilier": "Abri simple" }, "geometry": { "type": "Point", "coordinates": [ -1.619598, 48.132413 ] } },
{ "type": "Feature", "properties": { "id": "2133", "nom": "Cesson - Viasilva", "codeinseecommune": "35051", "mobilier": "Abri simple" }, "geometry": { "type": "Point", "coordinates": [ -1.619844, 48.132452 ] } },
{ "type": "Feature", "properties": { "id": "2134", "nom": "Cesson - Viasilva", "codeinseecommune": "35051", "mobilier": "Abri simple" }, "geometry": { "type": "Point", "coordinates": [ -1.620214, 48.132676 ] } },
{ "type": "Feature", "properties": { "id": "2138", "nom": "Cesson - Viasilva", "codeinseecommune": "35051", "mobilier": "Abri simple" }, "geometry": { "type": "Point", "coordinates": [ -1.619819, 48.132243 ] } },
{ "type": "Feature", "properties": { "id": "2142", "nom": "Cesson - Viasilva", "codeinseecommune": "35051", "mobilier": "Abri simple" }, "geometry": { "type": "Point", "coordinates": [ -1.620304, 48.133035 ] } },
{ "type": "Feature", "properties": { "id": "2143", "nom": "Monniais", "codeinseecommune": "35051", "mobilier": "Abri simple" }, "geometry": { "type": "Point", "coordinates": [ -1.608879, 48.109695 ] } },
{ "type": "Feature", "properties": { "id": "2144", "nom": "Sports et Nature", "codeinseecommune": "35051", "mobilier": "Abri auvent" }, "geometry": { "type": "Point", "coordinates": [ -1.608601, 48.114326 ] } },
{ "type": "Feature", "properties": { "id": "2145", "nom": "Sports et Nature", "codeinseecommune": "35051", "mobilier": "Poteau" }, "geometry": { "type": "Point", "coordinates": [ -1.608774, 48.114238 ] } },
{ "type": "Feature", "properties": { "id": "2146", "nom": "Stade Belliard", "codeinseecommune": "35051", "mobilier": "Abri simple" }, "geometry": { "type": "Point", "coordinates": [ -1.599477, 48.118847 ] } },
{ "type": "Feature", "properties": { "id": "2149", "nom": "Dézerseul", "codeinseecommune": "35051", "mobilier": "Abri simple" }, "geometry": { "type": "Point", "coordinates": [ -1.591469, 48.122835 ] } },
{ "type": "Feature", "properties": { "id": "2151", "nom": "Les Lacs", "codeinseecommune": "35051", "mobilier": "Abri simple" }, "geometry": { "type": "Point", "coordinates": [ -1.613001, 48.125362 ] } },
{ "type": "Feature", "properties": { "id": "2152", "nom": "Touche Lambert", "codeinseecommune": "35051", "mobilier": "Abri simple" }, "geometry": { "type": "Point", "coordinates": [ -1.622866, 48.135243 ] } },
{ "type": "Feature", "properties": { "id": "2159", "nom": "Pierrins", "codeinseecommune": "35051", "mobilier": "Abri" }, "geometry": { "type": "Point", "coordinates": [ -1.614392, 48.130092 ] } },
{ "type": "Feature", "properties": { "id": "2207", "nom": "Lilas", "codeinseecommune": "35281", "mobilier": "Poteau" }, "geometry": { "type": "Point", "coordinates": [ -1.699573, 48.09409 ] } },
{ "type": "Feature", "properties": { "id": "2215", "nom": "Collège Jean Moulin", "codeinseecommune": "35281", "mobilier": "Abri simple" }, "geometry": { "type": "Point", "coordinates": [ -1.71591, 48.076891 ] } },
{ "type": "Feature", "properties": { "id": "2226", "nom": "Rablais Allende", "codeinseecommune": "35281", "mobilier": "Abri simple" }, "geometry": { "type": "Point", "coordinates": [ -1.701446, 48.086645 ] } },
{ "type": "Feature", "properties": { "id": "2229", "nom": "Croix Verte", "codeinseecommune": "35281", "mobilier": "Abri simple" }, "geometry": { "type": "Point", "coordinates": [ -1.697947, 48.089432 ] } },
{ "type": "Feature", "properties": { "id": "2243", "nom": "Aire Libre", "codeinseecommune": "35281", "mobilier": "Poteau" }, "geometry": { "type": "Point", "coordinates": [ -1.721863, 48.067363 ] } },
{ "type": "Feature", "properties": { "id": "2254", "nom": "Le Pâtis", "codeinseecommune": "35281", "mobilier": "Poteau" }, "geometry": { "type": "Point", "coordinates": [ -1.72792, 48.085041 ] } },
{ "type": "Feature", "properties": { "id": "2273", "nom": "Jean Pont", "codeinseecommune": "35281", "mobilier": "Poteau" }, "geometry": { "type": "Point", "coordinates": [ -1.697847, 48.092147 ] } },
{ "type": "Feature", "properties": { "id": "2283", "nom": "Saint-Jacques - Gaîté", "codeinseecommune": "35281", "mobilier": "Abri simple" }, "geometry": { "type": "Point", "coordinates": [ -1.70317, 48.091789 ] } },
{ "type": "Feature", "properties": { "id": "2291", "nom": "Germaine Tillion", "codeinseecommune": "35281", "mobilier": "Abri simple" }, "geometry": { "type": "Point", "coordinates": [ -1.706118, 48.094478 ] } },
{ "type": "Feature", "properties": { "id": "2319", "nom": "Ker Lann", "codeinseecommune": "35047", "mobilier": "Abri simple" }, "geometry": { "type": "Point", "coordinates": [ -1.746243, 48.044553 ] } },
{ "type": "Feature", "properties": { "id": "2327", "nom": "Pont-Réan", "codeinseecommune": "35047", "mobilier": "Abri simple" }, "geometry": { "type": "Point", "coordinates": [ -1.774866, 48.005424 ] } },
{ "type": "Feature", "properties": { "id": "2330", "nom": "Rabine", "codeinseecommune": "35047", "mobilier": "Abri simple" }, "geometry": { "type": "Point", "coordinates": [ -1.761681, 48.023969 ] } },
{ "type": "Feature", "properties": { "id": "2337", "nom": "Lavoisier", "codeinseecommune": "35047", "mobilier": "Abri double" }, "geometry": { "type": "Point", "coordinates": [ -1.733027, 48.032987 ] } },
{ "type": "Feature", "properties": { "id": "2344", "nom": "Noë", "codeinseecommune": "35047", "mobilier": "Abri simple" }, "geometry": { "type": "Point", "coordinates": [ -1.752317, 48.021674 ] } },
{ "type": "Feature", "properties": { "id": "2359", "nom": "Doublé", "codeinseecommune": "35047", "mobilier": "Abri simple" }, "geometry": { "type": "Point", "coordinates": [ -1.723223, 48.035797 ] } },
{ "type": "Feature", "properties": { "id": "2371", "nom": "Roche Marguerite", "codeinseecommune": "35047", "mobilier": "Poteau" }, "geometry": { "type": "Point", "coordinates": [ -1.739761, 47.996666 ] } },
{ "type": "Feature", "properties": { "id": "2375", "nom": "Châteliers", "codeinseecommune": "35047", "mobilier": "Abri simple" }, "geometry": { "type": "Point", "coordinates": [ -1.752825, 48.024279 ] } },
{ "type": "Feature", "properties": { "id": "2377", "nom": "Corbières", "codeinseecommune": "35047", "mobilier": "Abri simple" }, "geometry": { "type": "Point", "coordinates": [ -1.757444, 48.035149 ] } },
{ "type": "Feature", "properties": { "id": "2402", "nom": "Omblais", "codeinseecommune": "35024", "mobilier": "Abri simple" }, "geometry": { "type": "Point", "coordinates": [ -1.651057, 48.179313 ] } },
{ "type": "Feature", "properties": { "id": "2403", "nom": "Brocéliande", "codeinseecommune": "35024", "mobilier": "Abri simple" }, "geometry": { "type": "Point", "coordinates": [ -1.651931, 48.180744 ] } },
{ "type": "Feature", "properties": { "id": "2416", "nom": "Haye Renaud Gare", "codeinseecommune": "35024", "mobilier": "Abri simple" }, "geometry": { "type": "Point", "coordinates": [ -1.6347, 48.180211 ] } },
{ "type": "Feature", "properties": { "id": "2427", "nom": "Champ Giron", "codeinseecommune": "35334", "mobilier": "Poteau" }, "geometry": { "type": "Point", "coordinates": [ -1.621955, 48.17044 ] } },
{ "type": "Feature", "properties": { "id": "2451", "nom": "Gentilhommière", "codeinseecommune": "35024", "mobilier": "Abri simple" }, "geometry": { "type": "Point", "coordinates": [ -1.629372, 48.190814 ] } },
{ "type": "Feature", "properties": { "id": "2454", "nom": "Renaudais", "codeinseecommune": "35024", "mobilier": "Abri simple" }, "geometry": { "type": "Point", "coordinates": [ -1.654824, 48.183178 ] } },
{ "type": "Feature", "properties": { "id": "2459", "nom": "Betton La Gaudière", "codeinseecommune": "35024", "mobilier": "Poteau BreizhGo" }, "geometry": { "type": "Point", "coordinates": [ -1.693657, 48.185181 ] } },
{ "type": "Feature", "properties": { "id": "2461", "nom": "La Haute Plesse", "codeinseecommune": "35024", "mobilier": "Abri simple" }, "geometry": { "type": "Point", "coordinates": [ -1.627785, 48.180116 ] } },
{ "type": "Feature", "properties": { "id": "2507", "nom": "Barberais", "codeinseecommune": "35240", "mobilier": "Abri simple" }, "geometry": { "type": "Point", "coordinates": [ -1.781427, 48.097541 ] } },
{ "type": "Feature", "properties": { "id": "2508", "nom": "Les Pins", "codeinseecommune": "35240", "mobilier": "Abri simple" }, "geometry": { "type": "Point", "coordinates": [ -1.775831, 48.096883 ] } },
{ "type": "Feature", "properties": { "id": "2513", "nom": "Les Pins", "codeinseecommune": "35240", "mobilier": "Abri simple" }, "geometry": { "type": "Point", "coordinates": [ -1.776059, 48.096983 ] } },
{ "type": "Feature", "properties": { "id": "2515", "nom": "Genêts", "codeinseecommune": "35240", "mobilier": "Poteau" }, "geometry": { "type": "Point", "coordinates": [ -1.790758, 48.099301 ] } },
{ "type": "Feature", "properties": { "id": "2519", "nom": "Lycée Monod", "codeinseecommune": "35240", "mobilier": "Abri double" }, "geometry": { "type": "Point", "coordinates": [ -1.806678, 48.100794 ] } },
{ "type": "Feature", "properties": { "id": "2540", "nom": "Acquêts", "codeinseecommune": "35240", "mobilier": "Abri simple" }, "geometry": { "type": "Point", "coordinates": [ -1.798135, 48.096877 ] } },
{ "type": "Feature", "properties": { "id": "2541", "nom": "Egalité", "codeinseecommune": "35240", "mobilier": "Poteau" }, "geometry": { "type": "Point", "coordinates": [ -1.795916, 48.094413 ] } },
{ "type": "Feature", "properties": { "id": "2547", "nom": "Clos Joury", "codeinseecommune": "35240", "mobilier": "Abri simple" }, "geometry": { "type": "Point", "coordinates": [ -1.801571, 48.100325 ] } },
{ "type": "Feature", "properties": { "id": "2607", "nom": "Haute Abbaye", "codeinseecommune": "35352", "mobilier": "Abri simple" }, "geometry": { "type": "Point", "coordinates": [ -1.613849, 48.052742 ] } },
{ "type": "Feature", "properties": { "id": "2610", "nom": "Garenne", "codeinseecommune": "35352", "mobilier": "Abri simple" }, "geometry": { "type": "Point", "coordinates": [ -1.625763, 48.067778 ] } },
{ "type": "Feature", "properties": { "id": "2617", "nom": "Fosse Gauchère", "codeinseecommune": "35352", "mobilier": "Abri simple" }, "geometry": { "type": "Point", "coordinates": [ -1.611132, 48.049476 ] } },
{ "type": "Feature", "properties": { "id": "2631", "nom": "Moulin", "codeinseecommune": "35352", "mobilier": "Abri simple" }, "geometry": { "type": "Point", "coordinates": [ -1.598639, 48.047709 ] } },
{ "type": "Feature", "properties": { "id": "2633", "nom": "Maillardière", "codeinseecommune": "35352", "mobilier": "Poteau" }, "geometry": { "type": "Point", "coordinates": [ -1.598577, 48.045208 ] } },
{ "type": "Feature", "properties": { "id": "2637", "nom": "Solidor", "codeinseecommune": "35352", "mobilier": "Abri simple" }, "geometry": { "type": "Point", "coordinates": [ -1.615173, 48.049622 ] } },
{ "type": "Feature", "properties": { "id": "2645", "nom": "Hauts de Gaudon", "codeinseecommune": "35352", "mobilier": "Poteau" }, "geometry": { "type": "Point", "coordinates": [ -1.592092, 48.041282 ] } },
{ "type": "Feature", "properties": { "id": "2647", "nom": "Vern Gare", "codeinseecommune": "35352", "mobilier": "Poteau provisoire" }, "geometry": { "type": "Point", "coordinates": [ -1.595867, 48.046846 ] } },
{ "type": "Feature", "properties": { "id": "2706", "nom": "Molène", "codeinseecommune": "35206", "mobilier": "Abri simple" }, "geometry": { "type": "Point", "coordinates": [ -1.670748, 48.038439 ] } },
{ "type": "Feature", "properties": { "id": "2730", "nom": "Croix de Pierre", "codeinseecommune": "35206", "mobilier": "Poteau" }, "geometry": { "type": "Point", "coordinates": [ -1.66477, 48.046117 ] } },
{ "type": "Feature", "properties": { "id": "2735", "nom": "Horizon", "codeinseecommune": "35206", "mobilier": "Poteau" }, "geometry": { "type": "Point", "coordinates": [ -1.663662, 48.041711 ] } },
{ "type": "Feature", "properties": { "id": "2747", "nom": "Lotissement du Moulin", "codeinseecommune": "35206", "mobilier": "Abri simple" }, "geometry": { "type": "Point", "coordinates": [ -1.656419, 48.041997 ] } },
{ "type": "Feature", "properties": { "id": "2754", "nom": "Abords Launay", "codeinseecommune": "35206", "mobilier": "Poteau" }, "geometry": { "type": "Point", "coordinates": [ -1.687059, 48.052963 ] } },
{ "type": "Feature", "properties": { "id": "2765", "nom": "Lotissement du Moulin", "codeinseecommune": "35206", "mobilier": "Abri simple" }, "geometry": { "type": "Point", "coordinates": [ -1.656314, 48.041899 ] } },
{ "type": "Feature", "properties": { "id": "2771", "nom": "Cours d'A Haut", "codeinseecommune": "35206", "mobilier": "Poteau provisoire" }, "geometry": { "type": "Point", "coordinates": [ -1.694164, 48.054926 ] } },
{ "type": "Feature", "properties": { "id": "2776", "nom": "Hil Boëdrier", "codeinseecommune": "35206", "mobilier": "Poteau" }, "geometry": { "type": "Point", "coordinates": [ -1.671382, 48.076347 ] } },
{ "type": "Feature", "properties": { "id": "2804", "nom": "Ricoquais", "codeinseecommune": "35278", "mobilier": "Abri double" }, "geometry": { "type": "Point", "coordinates": [ -1.676666, 48.159105 ] } },
{ "type": "Feature", "properties": { "id": "2814", "nom": "CHP Saint-Grégoire", "codeinseecommune": "35278", "mobilier": "Abri double" }, "geometry": { "type": "Point", "coordinates": [ -1.686467, 48.143142 ] } },
{ "type": "Feature", "properties": { "id": "2820", "nom": "Cité des Jardins", "codeinseecommune": "35278", "mobilier": "Abri simple" }, "geometry": { "type": "Point", "coordinates": [ -1.691312, 48.151473 ] } },
{ "type": "Feature", "properties": { "id": "2821", "nom": "Paul-Emile Victor", "codeinseecommune": "35278", "mobilier": "Abri simple" }, "geometry": { "type": "Point", "coordinates": [ -1.692091, 48.153628 ] } },
{ "type": "Feature", "properties": { "id": "2830", "nom": "Grand Quartier", "codeinseecommune": "35278", "mobilier": "Abri simple" }, "geometry": { "type": "Point", "coordinates": [ -1.694492, 48.13438 ] } },
{ "type": "Feature", "properties": { "id": "2832", "nom": "Holywell", "codeinseecommune": "35278", "mobilier": "Poteau" }, "geometry": { "type": "Point", "coordinates": [ -1.678795, 48.154749 ] } },
{ "type": "Feature", "properties": { "id": "2833", "nom": "Jean-Paul II", "codeinseecommune": "35278", "mobilier": "Abri simple" }, "geometry": { "type": "Point", "coordinates": [ -1.677216, 48.160123 ] } },
{ "type": "Feature", "properties": { "id": "2838", "nom": "Alphasis", "codeinseecommune": "35278", "mobilier": "Abri simple" }, "geometry": { "type": "Point", "coordinates": [ -1.696901, 48.153793 ] } },
{ "type": "Feature", "properties": { "id": "2848", "nom": "Forge", "codeinseecommune": "35278", "mobilier": "Abri simple" }, "geometry": { "type": "Point", "coordinates": [ -1.684413, 48.151909 ] } },
{ "type": "Feature", "properties": { "id": "2851", "nom": "Edonia", "codeinseecommune": "35278", "mobilier": "Poteau" }, "geometry": { "type": "Point", "coordinates": [ -1.696845, 48.148065 ] } },
{ "type": "Feature", "properties": { "id": "2852", "nom": "Edonia", "codeinseecommune": "35278", "mobilier": "Abri simple" }, "geometry": { "type": "Point", "coordinates": [ -1.696937, 48.147942 ] } },
{ "type": "Feature", "properties": { "id": "2911", "nom": "Parc de Loisirs", "codeinseecommune": "35066", "mobilier": "Abri simple" }, "geometry": { "type": "Point", "coordinates": [ -1.707242, 48.033279 ] } },
{ "type": "Feature", "properties": { "id": "2916", "nom": "Auditoire", "codeinseecommune": "35066", "mobilier": "Abri simple" }, "geometry": { "type": "Point", "coordinates": [ -1.702487, 48.041683 ] } },
{ "type": "Feature", "properties": { "id": "2921", "nom": "Collège Pôle Sud", "codeinseecommune": "35066", "mobilier": "Abri simple" }, "geometry": { "type": "Point", "coordinates": [ -1.698217, 48.041296 ] } },
{ "type": "Feature", "properties": { "id": "2925", "nom": "Chaussairie", "codeinseecommune": "35066", "mobilier": "Abri simple" }, "geometry": { "type": "Point", "coordinates": [ -1.711898, 48.033547 ] } },
{ "type": "Feature", "properties": { "id": "2927", "nom": "Parc de Loisirs", "codeinseecommune": "35066", "mobilier": "Poteau" }, "geometry": { "type": "Point", "coordinates": [ -1.707406, 48.033078 ] } },
{ "type": "Feature", "properties": { "id": "2945", "nom": "Ferme des Peupliers", "codeinseecommune": "35066", "mobilier": "Poteau" }, "geometry": { "type": "Point", "coordinates": [ -1.707965, 48.028925 ] } },
{ "type": "Feature", "properties": { "id": "3006", "nom": "Chantepie Mairie", "codeinseecommune": "35055", "mobilier": "Abri double" }, "geometry": { "type": "Point", "coordinates": [ -1.619233, 48.08848 ] } },
{ "type": "Feature", "properties": { "id": "3008", "nom": "Loges", "codeinseecommune": "35055", "mobilier": "Poteau" }, "geometry": { "type": "Point", "coordinates": [ -1.624139, 48.090337 ] } },
{ "type": "Feature", "properties": { "id": "3014", "nom": "Breillou", "codeinseecommune": "35055", "mobilier": "Abri auvent" }, "geometry": { "type": "Point", "coordinates": [ -1.622911, 48.098129 ] } },
{ "type": "Feature", "properties": { "id": "3019", "nom": "Val Blanc", "codeinseecommune": "35055", "mobilier": "Poteau" }, "geometry": { "type": "Point", "coordinates": [ -1.630929, 48.080437 ] } },
{ "type": "Feature", "properties": { "id": "3024", "nom": "Martinière", "codeinseecommune": "35352", "mobilier": "Abri simple" }, "geometry": { "type": "Point", "coordinates": [ -1.631844, 48.076972 ] } },
{ "type": "Feature", "properties": { "id": "3025", "nom": "Martinière", "codeinseecommune": "35055", "mobilier": "Poteau" }, "geometry": { "type": "Point", "coordinates": [ -1.631789, 48.076714 ] } },
{ "type": "Feature", "properties": { "id": "3029", "nom": "Touche Annette", "codeinseecommune": "35055", "mobilier": "Poteau" }, "geometry": { "type": "Point", "coordinates": [ -1.607413, 48.085669 ] } },
{ "type": "Feature", "properties": { "id": "3030", "nom": "Loges", "codeinseecommune": "35055", "mobilier": "Poteau" }, "geometry": { "type": "Point", "coordinates": [ -1.624746, 48.088608 ] } },
{ "type": "Feature", "properties": { "id": "3035", "nom": "Landes", "codeinseecommune": "35055", "mobilier": "Poteau" }, "geometry": { "type": "Point", "coordinates": [ -1.618178, 48.092466 ] } },
{ "type": "Feature", "properties": { "id": "3040", "nom": "Maubusson", "codeinseecommune": "35055", "mobilier": "Poteau BreizhGo + abri communal" }, "geometry": { "type": "Point", "coordinates": [ -1.569788, 48.069593 ] } },
{ "type": "Feature", "properties": { "id": "3108", "nom": "Duchesse Anne", "codeinseecommune": "35210", "mobilier": "Abri simple" }, "geometry": { "type": "Point", "coordinates": [ -1.771949, 48.150845 ] } },
{ "type": "Feature", "properties": { "id": "3111", "nom": "Le Ponant", "codeinseecommune": "35210", "mobilier": "Abri simple" }, "geometry": { "type": "Point", "coordinates": [ -1.770135, 48.142749 ] } },
{ "type": "Feature", "properties": { "id": "3115", "nom": "Pacé Cimetière", "codeinseecommune": "35210", "mobilier": "Poteau" }, "geometry": { "type": "Point", "coordinates": [ -1.769702, 48.148099 ] } },
{ "type": "Feature", "properties": { "id": "3119", "nom": "Pinault", "codeinseecommune": "35210", "mobilier": "Abri simple" }, "geometry": { "type": "Point", "coordinates": [ -1.781147, 48.147456 ] } },
{ "type": "Feature", "properties": { "id": "3144", "nom": "Opéra", "codeinseecommune": "35210", "mobilier": "Abri simple" }, "geometry": { "type": "Point", "coordinates": [ -1.766311, 48.141044 ] } },
{ "type": "Feature", "properties": { "id": "3146", "nom": "Touche Champagne", "codeinseecommune": "35210", "mobilier": "Poteau" }, "geometry": { "type": "Point", "coordinates": [ -1.80192, 48.180103 ] } },
{ "type": "Feature", "properties": { "id": "3154", "nom": "Pré Hervy", "codeinseecommune": "35210", "mobilier": "Poteau + Abri communal" }, "geometry": { "type": "Point", "coordinates": [ -1.789083, 48.135569 ] } },
{ "type": "Feature", "properties": { "id": "3169", "nom": "Beausoleil", "codeinseecommune": "35210", "mobilier": "Poteau" }, "geometry": { "type": "Point", "coordinates": [ -1.7636, 48.152642 ] } },
{ "type": "Feature", "properties": { "id": "3177", "nom": "La Foucherais", "codeinseecommune": "35210", "mobilier": "Poteau" }, "geometry": { "type": "Point", "coordinates": [ -1.775143, 48.179654 ] } },
{ "type": "Feature", "properties": { "id": "3205", "nom": "Petite Rochelle", "codeinseecommune": "35208", "mobilier": "Poteau" }, "geometry": { "type": "Point", "coordinates": [ -1.657105, 47.97607 ] } },
{ "type": "Feature", "properties": { "id": "3206", "nom": "Frogerais", "codeinseecommune": "35208", "mobilier": "Poteau" }, "geometry": { "type": "Point", "coordinates": [ -1.652321, 47.97539 ] } },
{ "type": "Feature", "properties": { "id": "3207", "nom": "Fort Joual", "codeinseecommune": "35208", "mobilier": "Poteau" }, "geometry": { "type": "Point", "coordinates": [ -1.645771, 47.969615 ] } },
{ "type": "Feature", "properties": { "id": "3209", "nom": "Surcouf", "codeinseecommune": "35208", "mobilier": "Abri simple" }, "geometry": { "type": "Point", "coordinates": [ -1.668818, 47.992562 ] } },
{ "type": "Feature", "properties": { "id": "3211", "nom": "Groupe Scolaire", "codeinseecommune": "35208", "mobilier": "Abri double" }, "geometry": { "type": "Point", "coordinates": [ -1.668469, 47.997336 ] } },
{ "type": "Feature", "properties": { "id": "3212", "nom": "Levant", "codeinseecommune": "35208", "mobilier": "Abri simple" }, "geometry": { "type": "Point", "coordinates": [ -1.666945, 48.000434 ] } },
{ "type": "Feature", "properties": { "id": "3220", "nom": "Surcouf", "codeinseecommune": "35208", "mobilier": "Poteau" }, "geometry": { "type": "Point", "coordinates": [ -1.667731, 47.992208 ] } },
{ "type": "Feature", "properties": { "id": "3225", "nom": "ZA L'Hermitière", "codeinseecommune": "35208", "mobilier": "Poteau" }, "geometry": { "type": "Point", "coordinates": [ -1.684894, 47.962608 ] } },
{ "type": "Feature", "properties": { "id": "3235", "nom": "La Rochelle", "codeinseecommune": "35208", "mobilier": "Poteau" }, "geometry": { "type": "Point", "coordinates": [ -1.65309, 47.984828 ] } },
{ "type": "Feature", "properties": { "id": "3244", "nom": "Violais", "codeinseecommune": "35208", "mobilier": "Poteau" }, "geometry": { "type": "Point", "coordinates": [ -1.648581, 47.972839 ] } },
{ "type": "Feature", "properties": { "id": "3248", "nom": "ZA L'Hermitière", "codeinseecommune": "35208", "mobilier": "Poteau" }, "geometry": { "type": "Point", "coordinates": [ -1.685005, 47.962638 ] } },
{ "type": "Feature", "properties": { "id": "3256", "nom": "Clos Vezins", "codeinseecommune": "35208", "mobilier": "Poteau" }, "geometry": { "type": "Point", "coordinates": [ -1.659888, 47.97809 ] } },
{ "type": "Feature", "properties": { "id": "3257", "nom": "Haye Longue", "codeinseecommune": "35208", "mobilier": "Poteau" }, "geometry": { "type": "Point", "coordinates": [ -1.665643, 48.005037 ] } },
{ "type": "Feature", "properties": { "id": "3259", "nom": "Ormes Blanches", "codeinseecommune": "35208", "mobilier": "Poteau" }, "geometry": { "type": "Point", "coordinates": [ -1.662935, 47.992662 ] } },
{ "type": "Feature", "properties": { "id": "3261", "nom": "La Barre", "codeinseecommune": "35208", "mobilier": "Poteau" }, "geometry": { "type": "Point", "coordinates": [ -1.652614, 47.989991 ] } },
{ "type": "Feature", "properties": { "id": "3302", "nom": "Thorigné Mairie", "codeinseecommune": "35334", "mobilier": "Abri simple" }, "geometry": { "type": "Point", "coordinates": [ -1.579424, 48.153029 ] } },
{ "type": "Feature", "properties": { "id": "3304", "nom": "Anne de Bretagne", "codeinseecommune": "35334", "mobilier": "Abri simple" }, "geometry": { "type": "Point", "coordinates": [ -1.580834, 48.155636 ] } },
{ "type": "Feature", "properties": { "id": "3305", "nom": "Bocage", "codeinseecommune": "35334", "mobilier": "Abri double" }, "geometry": { "type": "Point", "coordinates": [ -1.57964, 48.159005 ] } },
{ "type": "Feature", "properties": { "id": "3307", "nom": "Fouillard", "codeinseecommune": "35334", "mobilier": "Abri simple" }, "geometry": { "type": "Point", "coordinates": [ -1.586031, 48.160395 ] } },
{ "type": "Feature", "properties": { "id": "3309", "nom": "Portail", "codeinseecommune": "35334", "mobilier": "Abri simple" }, "geometry": { "type": "Point", "coordinates": [ -1.592377, 48.156263 ] } },
{ "type": "Feature", "properties": { "id": "3312", "nom": "Juteauderies", "codeinseecommune": "35334", "mobilier": "Abri simple" }, "geometry": { "type": "Point", "coordinates": [ -1.579168, 48.162912 ] } },
{ "type": "Feature", "properties": { "id": "3314", "nom": "Anne de Bretagne", "codeinseecommune": "35334", "mobilier": "Abri simple" }, "geometry": { "type": "Point", "coordinates": [ -1.580602, 48.156083 ] } },
{ "type": "Feature", "properties": { "id": "3316", "nom": "Village Collectivités", "codeinseecommune": "35334", "mobilier": "Abri simple" }, "geometry": { "type": "Point", "coordinates": [ -1.59619, 48.13242 ] } },
{ "type": "Feature", "properties": { "id": "3402", "nom": "Langlois", "codeinseecommune": "35204", "mobilier": "Poteau" }, "geometry": { "type": "Point", "coordinates": [ -1.549602, 48.040949 ] } },
{ "type": "Feature", "properties": { "id": "3404", "nom": "Menault", "codeinseecommune": "35204", "mobilier": "Abri simple" }, "geometry": { "type": "Point", "coordinates": [ -1.544723, 48.041344 ] } },
{ "type": "Feature", "properties": { "id": "3427", "nom": "Chêne Centenaire", "codeinseecommune": "35204", "mobilier": "Abri simple" }, "geometry": { "type": "Point", "coordinates": [ -1.540916, 48.039914 ] } },
{ "type": "Feature", "properties": { "id": "3601", "nom": "La Renardière", "codeinseecommune": "35216", "mobilier": "Poteau" }, "geometry": { "type": "Point", "coordinates": [ -1.835694, 48.183471 ] } },
{ "type": "Feature", "properties": { "id": "3602", "nom": "Parthenay Mairie", "codeinseecommune": "35216", "mobilier": "Abri double" }, "geometry": { "type": "Point", "coordinates": [ -1.831191, 48.192013 ] } },
{ "type": "Feature", "properties": { "id": "3604", "nom": "La Noë", "codeinseecommune": "35216", "mobilier": "Abri simple" }, "geometry": { "type": "Point", "coordinates": [ -1.824545, 48.19126 ] } },
{ "type": "Feature", "properties": { "id": "3613", "nom": "La Noë", "codeinseecommune": "35216", "mobilier": "Poteau" }, "geometry": { "type": "Point", "coordinates": [ -1.824264, 48.191277 ] } },
{ "type": "Feature", "properties": { "id": "3701", "nom": "Etang de la Motte", "codeinseecommune": "35275", "mobilier": "Abri bâti" }, "geometry": { "type": "Point", "coordinates": [ -1.871463, 48.153964 ] } },
{ "type": "Feature", "properties": { "id": "3712", "nom": "Pont aux Moines", "codeinseecommune": "35275", "mobilier": "Poteau" }, "geometry": { "type": "Point", "coordinates": [ -1.824843, 48.150708 ] } },
{ "type": "Feature", "properties": { "id": "3724", "nom": "Clos des Cerisiers", "codeinseecommune": "35275", "mobilier": "Poteau" }, "geometry": { "type": "Point", "coordinates": [ -1.834184, 48.15386 ] } },
{ "type": "Feature", "properties": { "id": "3728", "nom": "Haute Fresnais", "codeinseecommune": "35275", "mobilier": "Poteau" }, "geometry": { "type": "Point", "coordinates": [ -1.872155, 48.162194 ] } },
{ "type": "Feature", "properties": { "id": "3736", "nom": "Pierre Blanche", "codeinseecommune": "35275", "mobilier": "Poteau" }, "geometry": { "type": "Point", "coordinates": [ -1.871078, 48.138545 ] } },
{ "type": "Feature", "properties": { "id": "3739", "nom": "Rue de Rennes Cimetière", "codeinseecommune": "35275", "mobilier": null }, "geometry": { "type": "Point", "coordinates": [ -1.82634, 48.155398 ] } },
{ "type": "Feature", "properties": { "id": "3752", "nom": "Trois Marches", "codeinseecommune": "35353", "mobilier": "Abri simple" }, "geometry": { "type": "Point", "coordinates": [ -1.738951, 48.104708 ] } },
{ "type": "Feature", "properties": { "id": "3756", "nom": "Lion d'Or", "codeinseecommune": "35353", "mobilier": "Abri simple" }, "geometry": { "type": "Point", "coordinates": [ -1.760911, 48.119018 ] } },
{ "type": "Feature", "properties": { "id": "3758", "nom": "Tertre", "codeinseecommune": "35353", "mobilier": "Abri simple" }, "geometry": { "type": "Point", "coordinates": [ -1.743299, 48.11845 ] } },
{ "type": "Feature", "properties": { "id": "3760", "nom": "Champ Noël", "codeinseecommune": "35353", "mobilier": "Poteau" }, "geometry": { "type": "Point", "coordinates": [ -1.731192, 48.117742 ] } },
{ "type": "Feature", "properties": { "id": "3762", "nom": "Vezin Centre", "codeinseecommune": "35353", "mobilier": "Abri simple" }, "geometry": { "type": "Point", "coordinates": [ -1.755499, 48.11923 ] } },
{ "type": "Feature", "properties": { "id": "3764", "nom": "Vallée", "codeinseecommune": "35353", "mobilier": "Poteau" }, "geometry": { "type": "Point", "coordinates": [ -1.765598, 48.120397 ] } },
{ "type": "Feature", "properties": { "id": "3805", "nom": "Perelle", "codeinseecommune": "35032", "mobilier": "Abri simple" }, "geometry": { "type": "Point", "coordinates": [ -1.631614, 47.994567 ] } },
{ "type": "Feature", "properties": { "id": "3810", "nom": "Moc Souris", "codeinseecommune": "35032", "mobilier": "Abri simple" }, "geometry": { "type": "Point", "coordinates": [ -1.632441, 47.960018 ] } },
{ "type": "Feature", "properties": { "id": "3817", "nom": "Launay Garnier", "codeinseecommune": "35032", "mobilier": "Poteau" }, "geometry": { "type": "Point", "coordinates": [ -1.594689, 48.000864 ] } },
{ "type": "Feature", "properties": { "id": "3818", "nom": "Abords Lauriais", "codeinseecommune": "35032", "mobilier": "Poteau" }, "geometry": { "type": "Point", "coordinates": [ -1.639253, 47.968932 ] } },
{ "type": "Feature", "properties": { "id": "3828", "nom": "Pont du Gué", "codeinseecommune": "35032", "mobilier": "Poteau + Abri communal" }, "geometry": { "type": "Point", "coordinates": [ -1.613091, 47.997446 ] } },
{ "type": "Feature", "properties": { "id": "3852", "nom": "Mordelles Eglise", "codeinseecommune": "35196", "mobilier": "Abri double" }, "geometry": { "type": "Point", "coordinates": [ -1.849797, 48.071982 ] } },
{ "type": "Feature", "properties": { "id": "3856", "nom": "Croix Ignon", "codeinseecommune": "35196", "mobilier": "Abri simple" }, "geometry": { "type": "Point", "coordinates": [ -1.826599, 48.081326 ] } },
{ "type": "Feature", "properties": { "id": "3864", "nom": "Mordelles Mairie", "codeinseecommune": "35196", "mobilier": "Abri simple" }, "geometry": { "type": "Point", "coordinates": [ -1.84657, 48.073728 ] } },
{ "type": "Feature", "properties": { "id": "3869", "nom": "Mordelles Pâtis", "codeinseecommune": "35196", "mobilier": "Poteau" }, "geometry": { "type": "Point", "coordinates": [ -1.853694, 48.073893 ] } },
{ "type": "Feature", "properties": { "id": "3880", "nom": "Morvan Lebesque", "codeinseecommune": "35196", "mobilier": "Non matérialisé" }, "geometry": { "type": "Point", "coordinates": [ -1.841111, 48.071465 ] } },
{ "type": "Feature", "properties": { "id": "3882", "nom": "La Prie", "codeinseecommune": "35196", "mobilier": "Poteau" }, "geometry": { "type": "Point", "coordinates": [ -1.852034, 48.095306 ] } },
{ "type": "Feature", "properties": { "id": "3902", "nom": "Caliorne", "codeinseecommune": "35363", "mobilier": "Abri simple" }, "geometry": { "type": "Point", "coordinates": [ -1.698598, 48.006505 ] } },
{ "type": "Feature", "properties": { "id": "3907", "nom": "Fontaine Blanche", "codeinseecommune": "35363", "mobilier": "Abri double" }, "geometry": { "type": "Point", "coordinates": [ -1.705565, 48.016352 ] } },
{ "type": "Feature", "properties": { "id": "3915", "nom": "Caliorne", "codeinseecommune": "35363", "mobilier": "Poteau" }, "geometry": { "type": "Point", "coordinates": [ -1.698633, 48.006296 ] } },
{ "type": "Feature", "properties": { "id": "3959", "nom": "Tronchay", "codeinseecommune": "35315", "mobilier": "Abri simple" }, "geometry": { "type": "Point", "coordinates": [ -1.590523, 48.211781 ] } },
{ "type": "Feature", "properties": { "id": "4001", "nom": "Timonière", "codeinseecommune": "35001", "mobilier": "Poteau" }, "geometry": { "type": "Point", "coordinates": [ -1.526335, 48.137043 ] } },
{ "type": "Feature", "properties": { "id": "4013", "nom": "Verdaudais", "codeinseecommune": "35001", "mobilier": "Abri simple" }, "geometry": { "type": "Point", "coordinates": [ -1.532835, 48.13723 ] } },
{ "type": "Feature", "properties": { "id": "4019", "nom": "Botrel", "codeinseecommune": "35001", "mobilier": "Abri simple" }, "geometry": { "type": "Point", "coordinates": [ -1.52737, 48.140583 ] } },
{ "type": "Feature", "properties": { "id": "4020", "nom": "Botrel", "codeinseecommune": "35001", "mobilier": "Poteau" }, "geometry": { "type": "Point", "coordinates": [ -1.527234, 48.140192 ] } },
{ "type": "Feature", "properties": { "id": "4059", "nom": "La Chapelle Centre", "codeinseecommune": "35059", "mobilier": "Poteau" }, "geometry": { "type": "Point", "coordinates": [ -1.732725, 48.176698 ] } },
{ "type": "Feature", "properties": { "id": "4060", "nom": "Métairie", "codeinseecommune": "35059", "mobilier": "Poteau" }, "geometry": { "type": "Point", "coordinates": [ -1.729295, 48.179251 ] } },
{ "type": "Feature", "properties": { "id": "4076", "nom": "Montaigu", "codeinseecommune": "35059", "mobilier": "Poteau" }, "geometry": { "type": "Point", "coordinates": [ -1.755936, 48.175803 ] } },
{ "type": "Feature", "properties": { "id": "4078", "nom": "Confortland", "codeinseecommune": "35059", "mobilier": "Poteau" }, "geometry": { "type": "Point", "coordinates": [ -1.727382, 48.188604 ] } },
{ "type": "Feature", "properties": { "id": "4105", "nom": "Chêne Hervé", "codeinseecommune": "35088", "mobilier": "Abri simple" }, "geometry": { "type": "Point", "coordinates": [ -1.588238, 47.982145 ] } },
{ "type": "Feature", "properties": { "id": "4111", "nom": "Huberdières", "codeinseecommune": "35088", "mobilier": "Poteau" }, "geometry": { "type": "Point", "coordinates": [ -1.580189, 47.982641 ] } },
{ "type": "Feature", "properties": { "id": "4158", "nom": "Destiers", "codeinseecommune": "35039", "mobilier": "Poteau" }, "geometry": { "type": "Point", "coordinates": [ -1.48594, 48.10754 ] } },
{ "type": "Feature", "properties": { "id": "4204", "nom": "Avenir", "codeinseecommune": "35076", "mobilier": "Abri double" }, "geometry": { "type": "Point", "coordinates": [ -1.783728, 48.054003 ] } },
{ "type": "Feature", "properties": { "id": "4210", "nom": "Alfred de Musset", "codeinseecommune": "35076", "mobilier": "Abri simple" }, "geometry": { "type": "Point", "coordinates": [ -1.790048, 48.054828 ] } },
{ "type": "Feature", "properties": { "id": "4211", "nom": "Calvaire", "codeinseecommune": "35076", "mobilier": "Poteau" }, "geometry": { "type": "Point", "coordinates": [ -1.79051, 48.052395 ] } },
{ "type": "Feature", "properties": { "id": "4255", "nom": "Grippière", "codeinseecommune": "35065", "mobilier": "Poteau" }, "geometry": { "type": "Point", "coordinates": [ -1.837728, 48.121438 ] } },
{ "type": "Feature", "properties": { "id": "4264", "nom": "Place de la Mairie", "codeinseecommune": "35065", "mobilier": "Abri double" }, "geometry": { "type": "Point", "coordinates": [ -1.865875, 48.123073 ] } },
{ "type": "Feature", "properties": { "id": "4270", "nom": "Ville aux Archers", "codeinseecommune": "35065", "mobilier": "Poteau" }, "geometry": { "type": "Point", "coordinates": [ -1.868462, 48.122678 ] } },
{ "type": "Feature", "properties": { "id": "4303", "nom": "L'Hermitage Gare", "codeinseecommune": "35131", "mobilier": "Abri simple" }, "geometry": { "type": "Point", "coordinates": [ -1.817746, 48.123897 ] } },
{ "type": "Feature", "properties": { "id": "4304", "nom": "L'Hermitage Centre", "codeinseecommune": "35131", "mobilier": "Poteau" }, "geometry": { "type": "Point", "coordinates": [ -1.81595, 48.125555 ] } },
{ "type": "Feature", "properties": { "id": "4305", "nom": "Village", "codeinseecommune": "35131", "mobilier": "Abri double" }, "geometry": { "type": "Point", "coordinates": [ -1.811505, 48.124598 ] } },
{ "type": "Feature", "properties": { "id": "4308", "nom": "Village", "codeinseecommune": "35131", "mobilier": "Poteau" }, "geometry": { "type": "Point", "coordinates": [ -1.813048, 48.125061 ] } },
{ "type": "Feature", "properties": { "id": "4311", "nom": "Hautière", "codeinseecommune": "35131", "mobilier": "Poteau" }, "geometry": { "type": "Point", "coordinates": [ -1.821041, 48.122943 ] } },
{ "type": "Feature", "properties": { "id": "4312", "nom": "Lemordant", "codeinseecommune": "35131", "mobilier": "Poteau" }, "geometry": { "type": "Point", "coordinates": [ -1.812387, 48.127299 ] } },
{ "type": "Feature", "properties": { "id": "4327", "nom": "Lemordant", "codeinseecommune": "35131", "mobilier": "Abri simple" }, "geometry": { "type": "Point", "coordinates": [ -1.812869, 48.127335 ] } },
{ "type": "Feature", "properties": { "id": "4330", "nom": "Rue de Pacé", "codeinseecommune": "35131", "mobilier": "Abri simple" }, "geometry": { "type": "Point", "coordinates": [ -1.806425, 48.126029 ] } },
{ "type": "Feature", "properties": { "id": "4364", "nom": "Douazel", "codeinseecommune": "35266", "mobilier": "Abri simple" }, "geometry": { "type": "Point", "coordinates": [ -1.63193, 48.020602 ] } },
{ "type": "Feature", "properties": { "id": "4374", "nom": "Pont de l'Ise", "codeinseecommune": "35266", "mobilier": "Poteau" }, "geometry": { "type": "Point", "coordinates": [ -1.646869, 48.020286 ] } },
{ "type": "Feature", "properties": { "id": "4380", "nom": "Collège Saint-Paul", "codeinseecommune": "35266", "mobilier": "Poteau" }, "geometry": { "type": "Point", "coordinates": [ -1.662017, 48.017806 ] } },
{ "type": "Feature", "properties": { "id": "4407", "nom": "Monbusson", "codeinseecommune": "35351", "mobilier": "Poteau" }, "geometry": { "type": "Point", "coordinates": [ -1.943188, 48.069416 ] } },
{ "type": "Feature", "properties": { "id": "4410", "nom": "La Lande Basse", "codeinseecommune": "35351", "mobilier": "Poteau + Abri communal" }, "geometry": { "type": "Point", "coordinates": [ -1.930041, 48.062953 ] } },
{ "type": "Feature", "properties": { "id": "4451", "nom": "Clairville", "codeinseecommune": "35081", "mobilier": "Abri simple" }, "geometry": { "type": "Point", "coordinates": [ -1.850524, 48.180991 ] } },
{ "type": "Feature", "properties": { "id": "4457", "nom": "Clayes Centre", "codeinseecommune": "35081", "mobilier": "Poteau" }, "geometry": { "type": "Point", "coordinates": [ -1.85246, 48.176288 ] } },
{ "type": "Feature", "properties": { "id": "4502", "nom": "Gévezé Mairie", "codeinseecommune": "35120", "mobilier": "Abri double" }, "geometry": { "type": "Point", "coordinates": [ -1.788677, 48.220988 ] } },
{ "type": "Feature", "properties": { "id": "4524", "nom": "Vieux Moulin", "codeinseecommune": "35120", "mobilier": "Abri double" }, "geometry": { "type": "Point", "coordinates": [ -1.787827, 48.219957 ] } },
{ "type": "Feature", "properties": { "id": "4525", "nom": "Vieux Moulin", "codeinseecommune": "35120", "mobilier": "Poteau" }, "geometry": { "type": "Point", "coordinates": [ -1.7875, 48.219983 ] } },
{ "type": "Feature", "properties": { "id": "4530", "nom": "Lande de Villé", "codeinseecommune": "35120", "mobilier": "Poteau" }, "geometry": { "type": "Point", "coordinates": [ -1.787786, 48.23354 ] } },
{ "type": "Feature", "properties": { "id": "4532", "nom": "Gévezé Clairville", "codeinseecommune": "35120", "mobilier": "Abri" }, "geometry": { "type": "Point", "coordinates": [ -1.784527, 48.222643 ] } },
{ "type": "Feature", "properties": { "id": "4533", "nom": "Gévezé Clairville", "codeinseecommune": "35120", "mobilier": "Poteau" }, "geometry": { "type": "Point", "coordinates": [ -1.784546, 48.222453 ] } },
{ "type": "Feature", "properties": { "id": "4601", "nom": "Chevaigné Mairie", "codeinseecommune": "35079", "mobilier": "Poteau" }, "geometry": { "type": "Point", "coordinates": [ -1.630336, 48.211774 ] } },
{ "type": "Feature", "properties": { "id": "4671", "nom": "Clos de la Vallée", "codeinseecommune": "35080", "mobilier": "Abri simple" }, "geometry": { "type": "Point", "coordinates": [ -1.879138, 48.103846 ] } },
{ "type": "Feature", "properties": { "id": "4672", "nom": "Chêne Vert", "codeinseecommune": "35080", "mobilier": "Abri simple" }, "geometry": { "type": "Point", "coordinates": [ -1.872359, 48.105053 ] } },
{ "type": "Feature", "properties": { "id": "4700", "nom": "Point du Jour", "codeinseecommune": "35139", "mobilier": "Abri double" }, "geometry": { "type": "Point", "coordinates": [ -1.71347, 47.97845 ] } },
{ "type": "Feature", "properties": { "id": "4701", "nom": "Point du Jour", "codeinseecommune": "35139", "mobilier": "Abri simple" }, "geometry": { "type": "Point", "coordinates": [ -1.713057, 47.978582 ] } },
{ "type": "Feature", "properties": { "id": "4702", "nom": "Orée du Bois", "codeinseecommune": "35139", "mobilier": "Abri simple" }, "geometry": { "type": "Point", "coordinates": [ -1.717006, 47.975508 ] } },
{ "type": "Feature", "properties": { "id": "4708", "nom": "Gingouillère", "codeinseecommune": "35139", "mobilier": "Abri simple" }, "geometry": { "type": "Point", "coordinates": [ -1.730834, 47.980101 ] } },
{ "type": "Feature", "properties": { "id": "4710", "nom": "Bout de Lande", "codeinseecommune": "35139", "mobilier": "Poteau" }, "geometry": { "type": "Point", "coordinates": [ -1.693264, 47.979836 ] } },
{ "type": "Feature", "properties": { "id": "4715", "nom": "Bossardière", "codeinseecommune": "35139", "mobilier": "Poteau" }, "geometry": { "type": "Point", "coordinates": [ -1.696275, 47.94162 ] } },
{ "type": "Feature", "properties": { "id": "4721", "nom": "Château d'Eau", "codeinseecommune": "35139", "mobilier": "Poteau" }, "geometry": { "type": "Point", "coordinates": [ -1.697674, 47.974361 ] } },
{ "type": "Feature", "properties": { "id": "4729", "nom": "La Gicquelais", "codeinseecommune": "35139", "mobilier": "Poteau + Abri communal" }, "geometry": { "type": "Point", "coordinates": [ -1.710578, 47.939631 ] } },
{ "type": "Feature", "properties": { "id": "4748", "nom": "Montheleu", "codeinseecommune": "35139", "mobilier": "Poteau + Abri communal" }, "geometry": { "type": "Point", "coordinates": [ -1.686219, 47.954602 ] } },
{ "type": "Feature", "properties": { "id": "4754", "nom": "ZA Le Rachat", "codeinseecommune": "35139", "mobilier": "Poteau" }, "geometry": { "type": "Point", "coordinates": [ -1.714829, 47.973599 ] } },
{ "type": "Feature", "properties": { "id": "4764", "nom": "Laillé Collège", "codeinseecommune": "35139", "mobilier": "Non matérialisé" }, "geometry": { "type": "Point", "coordinates": [ -1.714846, 47.982123 ] } },
{ "type": "Feature", "properties": { "id": "4770", "nom": "Laillé Collège", "codeinseecommune": "35139", "mobilier": null }, "geometry": { "type": "Point", "coordinates": [ -1.715704, 47.982174 ] } },
{ "type": "Feature", "properties": { "id": "4906", "nom": "Le Rhé", "codeinseecommune": "35144", "mobilier": "Poteau" }, "geometry": { "type": "Point", "coordinates": [ -1.86779, 48.24926 ] } },
{ "type": "Feature", "properties": { "id": "6000", "nom": "Romillé Collège", "codeinseecommune": "35245", "mobilier": "Abri double" }, "geometry": { "type": "Point", "coordinates": [ -1.893394, 48.218682 ] } },
{ "type": "Feature", "properties": { "id": "6001", "nom": "Frères Aubert", "codeinseecommune": "35245", "mobilier": "Poteau" }, "geometry": { "type": "Point", "coordinates": [ -1.890427, 48.216934 ] } },
{ "type": "Feature", "properties": { "id": "6004", "nom": "Romillé Mairie", "codeinseecommune": "35245", "mobilier": "Abri simple" }, "geometry": { "type": "Point", "coordinates": [ -1.891915, 48.215664 ] } },
{ "type": "Feature", "properties": { "id": "6005", "nom": "Mettrie Templiers", "codeinseecommune": "35245", "mobilier": "Poteau" }, "geometry": { "type": "Point", "coordinates": [ -1.890827, 48.212414 ] } },
{ "type": "Feature", "properties": { "id": "6014", "nom": "Chauvrais Malabry", "codeinseecommune": "35245", "mobilier": "Poteau" }, "geometry": { "type": "Point", "coordinates": [ -1.865298, 48.238533 ] } },
{ "type": "Feature", "properties": { "id": "6021", "nom": "Romillé Collège", "codeinseecommune": "35245", "mobilier": "Non matérialisé" }, "geometry": { "type": "Point", "coordinates": [ -1.895741, 48.218528 ] } },
{ "type": "Feature", "properties": { "id": "9040", "nom": "Office de Tourisme", "codeinseecommune": "35238", "mobilier": null }, "geometry": { "type": "Point", "coordinates": [ -1.680921, 48.115256 ] } },
{ "type": "Feature", "properties": { "id": "9098", "nom": "Anatole France Ev", "codeinseecommune": "35238", "mobilier": null }, "geometry": { "type": "Point", "coordinates": [ -1.688235, 48.118426 ] } },
{ "type": "Feature", "properties": { "id": "9113", "nom": "Pont de Nantes Ev", "codeinseecommune": "35238", "mobilier": null }, "geometry": { "type": "Point", "coordinates": [ -1.683343, 48.102039 ] } },
{ "type": "Feature", "properties": { "id": "9157", "nom": "Parc Expo", "codeinseecommune": "35281", "mobilier": "Non matérialisé" }, "geometry": { "type": "Point", "coordinates": [ -1.731141, 48.060363 ] } },
{ "type": "Feature", "properties": { "id": "9236", "nom": "Gingouillère", "codeinseecommune": "35139", "mobilier": null }, "geometry": { "type": "Point", "coordinates": [ -1.73238, 47.980695 ] } },
{ "type": "Feature", "properties": { "id": "1002", "nom": "Bouzat", "codeinseecommune": "35238", "mobilier": "Abri simple" }, "geometry": { "type": "Point", "coordinates": [ -1.637811, 48.128276 ] } },
{ "type": "Feature", "properties": { "id": "1003", "nom": "Gallet", "codeinseecommune": "35238", "mobilier": "Abri simple" }, "geometry": { "type": "Point", "coordinates": [ -1.640438, 48.127349 ] } },
{ "type": "Feature", "properties": { "id": "1008", "nom": "Painlevé", "codeinseecommune": "35238", "mobilier": "Abri simple" }, "geometry": { "type": "Point", "coordinates": [ -1.660232, 48.123195 ] } },
{ "type": "Feature", "properties": { "id": "1018", "nom": "Colombier", "codeinseecommune": "35238", "mobilier": "Abri simple" }, "geometry": { "type": "Point", "coordinates": [ -1.682215, 48.105917 ] } },
{ "type": "Feature", "properties": { "id": "1021", "nom": "Cité Judiciaire", "codeinseecommune": "35238", "mobilier": "Abri simple" }, "geometry": { "type": "Point", "coordinates": [ -1.684318, 48.105207 ] } },
{ "type": "Feature", "properties": { "id": "1033", "nom": "Assomption", "codeinseecommune": "35238", "mobilier": "Abri double" }, "geometry": { "type": "Point", "coordinates": [ -1.654975, 48.121263 ] } },
{ "type": "Feature", "properties": { "id": "1040", "nom": "Donelière", "codeinseecommune": "35238", "mobilier": "Abri simple" }, "geometry": { "type": "Point", "coordinates": [ -1.684309, 48.129874 ] } },
{ "type": "Feature", "properties": { "id": "1043", "nom": "Saint-Martin", "codeinseecommune": "35238", "mobilier": "Abri auvent" }, "geometry": { "type": "Point", "coordinates": [ -1.684264, 48.123605 ] } },
{ "type": "Feature", "properties": { "id": "1060", "nom": "Piré", "codeinseecommune": "35238", "mobilier": "Abri simple" }, "geometry": { "type": "Point", "coordinates": [ -1.657499, 48.09944 ] } },
{ "type": "Feature", "properties": { "id": "1063", "nom": "Monsieur Vincent", "codeinseecommune": "35238", "mobilier": "Abri simple" }, "geometry": { "type": "Point", "coordinates": [ -1.647465, 48.09272 ] } },
{ "type": "Feature", "properties": { "id": "1079", "nom": "Monsieur Vincent", "codeinseecommune": "35238", "mobilier": "Abri simple" }, "geometry": { "type": "Point", "coordinates": [ -1.647229, 48.092782 ] } },
{ "type": "Feature", "properties": { "id": "1096", "nom": "Anatole France", "codeinseecommune": "35238", "mobilier": "Abri simple" }, "geometry": { "type": "Point", "coordinates": [ -1.689241, 48.118212 ] } },
{ "type": "Feature", "properties": { "id": "1099", "nom": "Saint-Martin", "codeinseecommune": "35238", "mobilier": "Abri auvent" }, "geometry": { "type": "Point", "coordinates": [ -1.683579, 48.123593 ] } },
{ "type": "Feature", "properties": { "id": "1101", "nom": "Trois Croix", "codeinseecommune": "35238", "mobilier": "Abri simple" }, "geometry": { "type": "Point", "coordinates": [ -1.683243, 48.127249 ] } },
{ "type": "Feature", "properties": { "id": "1105", "nom": "Héronière", "codeinseecommune": "35238", "mobilier": "Abri simple" }, "geometry": { "type": "Point", "coordinates": [ -1.655711, 48.1355 ] } },
{ "type": "Feature", "properties": { "id": "1114", "nom": "Durafour", "codeinseecommune": "35238", "mobilier": "Abri double" }, "geometry": { "type": "Point", "coordinates": [ -1.658068, 48.114502 ] } },
{ "type": "Feature", "properties": { "id": "1121", "nom": "Charles de Gaulle", "codeinseecommune": "35238", "mobilier": "Abri simple" }, "geometry": { "type": "Point", "coordinates": [ -1.677802, 48.106049 ] } },
{ "type": "Feature", "properties": { "id": "1123", "nom": "Ginguené", "codeinseecommune": "35238", "mobilier": "Abri auvent" }, "geometry": { "type": "Point", "coordinates": [ -1.675714, 48.099081 ] } },
{ "type": "Feature", "properties": { "id": "1125", "nom": "Sacrés Coeurs", "codeinseecommune": "35238", "mobilier": "Abri simple" }, "geometry": { "type": "Point", "coordinates": [ -1.679193, 48.096917 ] } },
{ "type": "Feature", "properties": { "id": "1127", "nom": "Frères Moine", "codeinseecommune": "35238", "mobilier": "Abri simple" }, "geometry": { "type": "Point", "coordinates": [ -1.68192, 48.093024 ] } },
{ "type": "Feature", "properties": { "id": "1129", "nom": "Suède", "codeinseecommune": "35238", "mobilier": "Abri simple" }, "geometry": { "type": "Point", "coordinates": [ -1.682469, 48.08725 ] } },
{ "type": "Feature", "properties": { "id": "1140", "nom": "Jacques Cartier", "codeinseecommune": "35238", "mobilier": "Abri auvent" }, "geometry": { "type": "Point", "coordinates": [ -1.674312, 48.097442 ] } },
{ "type": "Feature", "properties": { "id": "1141", "nom": "Ginguené", "codeinseecommune": "35238", "mobilier": "Poteau" }, "geometry": { "type": "Point", "coordinates": [ -1.67576, 48.099786 ] } },
{ "type": "Feature", "properties": { "id": "1150", "nom": "Jeanne d'Arc", "codeinseecommune": "35238", "mobilier": "Abri auvent" }, "geometry": { "type": "Point", "coordinates": [ -1.655385, 48.116606 ] } },
{ "type": "Feature", "properties": { "id": "1164", "nom": "Pont de Châteaudun", "codeinseecommune": "35238", "mobilier": "Abri double" }, "geometry": { "type": "Point", "coordinates": [ -1.663976, 48.110129 ] } },
{ "type": "Feature", "properties": { "id": "1170", "nom": "Paul Bert", "codeinseecommune": "35238", "mobilier": "Abri simple" }, "geometry": { "type": "Point", "coordinates": [ -1.668988, 48.110002 ] } },
{ "type": "Feature", "properties": { "id": "1172", "nom": "Robidou", "codeinseecommune": "35238", "mobilier": "Abri simple" }, "geometry": { "type": "Point", "coordinates": [ -1.659193, 48.110034 ] } },
{ "type": "Feature", "properties": { "id": "1177", "nom": "Beaulieu - Université", "codeinseecommune": "35238", "mobilier": "Abri double" }, "geometry": { "type": "Point", "coordinates": [ -1.639598, 48.122314 ] } },
{ "type": "Feature", "properties": { "id": "1179", "nom": "Jeanne d'Arc", "codeinseecommune": "35238", "mobilier": "Abri simple" }, "geometry": { "type": "Point", "coordinates": [ -1.655827, 48.117031 ] } },
{ "type": "Feature", "properties": { "id": "1181", "nom": "Musset Cité U", "codeinseecommune": "35238", "mobilier": "Abri simple" }, "geometry": { "type": "Point", "coordinates": [ -1.662539, 48.116152 ] } },
{ "type": "Feature", "properties": { "id": "1184", "nom": "Dinan", "codeinseecommune": "35238", "mobilier": "Abri auvent" }, "geometry": { "type": "Point", "coordinates": [ -1.681512, 48.117225 ] } },
{ "type": "Feature", "properties": { "id": "1185", "nom": "Legraverend", "codeinseecommune": "35238", "mobilier": "Poteau" }, "geometry": { "type": "Point", "coordinates": [ -1.684984, 48.117782 ] } },
{ "type": "Feature", "properties": { "id": "1194", "nom": "Anatole France", "codeinseecommune": "35238", "mobilier": "Abri simple" }, "geometry": { "type": "Point", "coordinates": [ -1.687186, 48.118171 ] } },
{ "type": "Feature", "properties": { "id": "1195", "nom": "Legraverend", "codeinseecommune": "35238", "mobilier": "Abri auvent" }, "geometry": { "type": "Point", "coordinates": [ -1.684834, 48.11766 ] } },
{ "type": "Feature", "properties": { "id": "1198", "nom": "George Sand", "codeinseecommune": "35238", "mobilier": "Abri simple" }, "geometry": { "type": "Point", "coordinates": [ -1.668831, 48.116271 ] } },
{ "type": "Feature", "properties": { "id": "1200", "nom": "Jeanne d'Arc", "codeinseecommune": "35238", "mobilier": "Abri simple" }, "geometry": { "type": "Point", "coordinates": [ -1.656347, 48.116812 ] } },
{ "type": "Feature", "properties": { "id": "1201", "nom": "Vitré Foulon", "codeinseecommune": "35238", "mobilier": "Abri simple" }, "geometry": { "type": "Point", "coordinates": [ -1.649111, 48.119102 ] } },
{ "type": "Feature", "properties": { "id": "1202", "nom": "Beaulieu Cité U", "codeinseecommune": "35238", "mobilier": "Abri simple" }, "geometry": { "type": "Point", "coordinates": [ -1.644215, 48.120592 ] } },
{ "type": "Feature", "properties": { "id": "1219", "nom": "Papeteries", "codeinseecommune": "35238", "mobilier": "Abri simple" }, "geometry": { "type": "Point", "coordinates": [ -1.703774, 48.108278 ] } },
{ "type": "Feature", "properties": { "id": "1220", "nom": "Kerviler", "codeinseecommune": "35238", "mobilier": "Abri simple" }, "geometry": { "type": "Point", "coordinates": [ -1.70663, 48.109245 ] } },
{ "type": "Feature", "properties": { "id": "1225", "nom": "Jardin Moderne", "codeinseecommune": "35238", "mobilier": "Poteau" }, "geometry": { "type": "Point", "coordinates": [ -1.728276, 48.101905 ] } },
{ "type": "Feature", "properties": { "id": "1239", "nom": "Chèques Postaux", "codeinseecommune": "35238", "mobilier": "Abri auvent" }, "geometry": { "type": "Point", "coordinates": [ -1.694247, 48.108237 ] } },
{ "type": "Feature", "properties": { "id": "1240", "nom": "Le Mail", "codeinseecommune": "35238", "mobilier": "Abri simple" }, "geometry": { "type": "Point", "coordinates": [ -1.689687, 48.109257 ] } },
{ "type": "Feature", "properties": { "id": "1251", "nom": "Veyettes", "codeinseecommune": "35238", "mobilier": "Abri simple" }, "geometry": { "type": "Point", "coordinates": [ -1.629118, 48.097057 ] } },
{ "type": "Feature", "properties": { "id": "1264", "nom": "Pont de Nantes", "codeinseecommune": "35238", "mobilier": "Abri auvent" }, "geometry": { "type": "Point", "coordinates": [ -1.684411, 48.102041 ] } },
{ "type": "Feature", "properties": { "id": "1265", "nom": "Foyer Rennais", "codeinseecommune": "35238", "mobilier": "Abri simple" }, "geometry": { "type": "Point", "coordinates": [ -1.687204, 48.099742 ] } },
{ "type": "Feature", "properties": { "id": "1267", "nom": "Félix Eboué", "codeinseecommune": "35238", "mobilier": "Abri simple" }, "geometry": { "type": "Point", "coordinates": [ -1.693874, 48.085711 ] } },
{ "type": "Feature", "properties": { "id": "1269", "nom": "Lycée Bréquigny", "codeinseecommune": "35238", "mobilier": "Abri double" }, "geometry": { "type": "Point", "coordinates": [ -1.692047, 48.084121 ] } },
{ "type": "Feature", "properties": { "id": "1273", "nom": "Saint-Yves", "codeinseecommune": "35238", "mobilier": "Abri simple" }, "geometry": { "type": "Point", "coordinates": [ -1.691197, 48.092754 ] } },
{ "type": "Feature", "properties": { "id": "1274", "nom": "Pilate", "codeinseecommune": "35238", "mobilier": "Abri simple" }, "geometry": { "type": "Point", "coordinates": [ -1.689979, 48.095058 ] } },
{ "type": "Feature", "properties": { "id": "1279", "nom": "Rectorat", "codeinseecommune": "35238", "mobilier": "Abri simple" }, "geometry": { "type": "Point", "coordinates": [ -1.674354, 48.119465 ] } },
{ "type": "Feature", "properties": { "id": "1293", "nom": "Guilloux", "codeinseecommune": "35238", "mobilier": "Abri simple" }, "geometry": { "type": "Point", "coordinates": [ -1.698708, 48.110009 ] } },
{ "type": "Feature", "properties": { "id": "1295", "nom": "Berger", "codeinseecommune": "35238", "mobilier": "Abri simple" }, "geometry": { "type": "Point", "coordinates": [ -1.704614, 48.116783 ] } },
{ "type": "Feature", "properties": { "id": "1300", "nom": "Cucillé - Frac", "codeinseecommune": "35238", "mobilier": "Abri simple" }, "geometry": { "type": "Point", "coordinates": [ -1.698912, 48.128585 ] } },
{ "type": "Feature", "properties": { "id": "1306", "nom": "Bois Labbé", "codeinseecommune": "35238", "mobilier": "Abri simple" }, "geometry": { "type": "Point", "coordinates": [ -1.703183, 48.12523 ] } },
{ "type": "Feature", "properties": { "id": "1308", "nom": "Université", "codeinseecommune": "35238", "mobilier": "Abri simple" }, "geometry": { "type": "Point", "coordinates": [ -1.704728, 48.118907 ] } },
{ "type": "Feature", "properties": { "id": "1311", "nom": "Guilloux", "codeinseecommune": "35238", "mobilier": "Abri simple" }, "geometry": { "type": "Point", "coordinates": [ -1.698286, 48.109561 ] } },
{ "type": "Feature", "properties": { "id": "1312", "nom": "Beaulieu Chimie", "codeinseecommune": "35238", "mobilier": "Abri double" }, "geometry": { "type": "Point", "coordinates": [ -1.633917, 48.116547 ] } },
{ "type": "Feature", "properties": { "id": "1319", "nom": "Domaine", "codeinseecommune": "35238", "mobilier": "Abri simple" }, "geometry": { "type": "Point", "coordinates": [ -1.641624, 48.096995 ] } },
{ "type": "Feature", "properties": { "id": "1321", "nom": "Sauvaie", "codeinseecommune": "35238", "mobilier": "Abri simple" }, "geometry": { "type": "Point", "coordinates": [ -1.633845, 48.093804 ] } },
{ "type": "Feature", "properties": { "id": "1324", "nom": "Domaine", "codeinseecommune": "35238", "mobilier": "Abri simple" }, "geometry": { "type": "Point", "coordinates": [ -1.642466, 48.097687 ] } },
{ "type": "Feature", "properties": { "id": "1329", "nom": "Lenoir", "codeinseecommune": "35238", "mobilier": "Abri simple" }, "geometry": { "type": "Point", "coordinates": [ -1.683258, 48.121567 ] } },
{ "type": "Feature", "properties": { "id": "1330", "nom": "Auberge de Jeunesse", "codeinseecommune": "35238", "mobilier": "Abri simple" }, "geometry": { "type": "Point", "coordinates": [ -1.681575, 48.120349 ] } },
{ "type": "Feature", "properties": { "id": "1334", "nom": "Châtillon", "codeinseecommune": "35238", "mobilier": "Abri simple" }, "geometry": { "type": "Point", "coordinates": [ -1.67127, 48.097721 ] } },
{ "type": "Feature", "properties": { "id": "1335", "nom": "Ormeaux", "codeinseecommune": "35238", "mobilier": "Abri simple" }, "geometry": { "type": "Point", "coordinates": [ -1.668373, 48.097715 ] } },
{ "type": "Feature", "properties": { "id": "1337", "nom": "Sainte-Thérèse", "codeinseecommune": "35238", "mobilier": "Poteau" }, "geometry": { "type": "Point", "coordinates": [ -1.66289, 48.097532 ] } },
{ "type": "Feature", "properties": { "id": "1341", "nom": "Landrel", "codeinseecommune": "35238", "mobilier": "Abri simple" }, "geometry": { "type": "Point", "coordinates": [ -1.654549, 48.091229 ] } },
{ "type": "Feature", "properties": { "id": "1383", "nom": "Dargent", "codeinseecommune": "35238", "mobilier": "Abri simple" }, "geometry": { "type": "Point", "coordinates": [ -1.700025, 48.103601 ] } },
{ "type": "Feature", "properties": { "id": "1386", "nom": "Guérinais", "codeinseecommune": "35238", "mobilier": "Abri simple" }, "geometry": { "type": "Point", "coordinates": [ -1.705458, 48.098922 ] } },
{ "type": "Feature", "properties": { "id": "1388", "nom": "Montand", "codeinseecommune": "35238", "mobilier": "Abri simple" }, "geometry": { "type": "Point", "coordinates": [ -1.711203, 48.09933 ] } },
{ "type": "Feature", "properties": { "id": "1390", "nom": "Porte de Cleunay", "codeinseecommune": "35238", "mobilier": "Abri simple" }, "geometry": { "type": "Point", "coordinates": [ -1.713423, 48.104169 ] } },
{ "type": "Feature", "properties": { "id": "1394", "nom": "Guérinais", "codeinseecommune": "35238", "mobilier": "Abri simple" }, "geometry": { "type": "Point", "coordinates": [ -1.705543, 48.099043 ] } },
{ "type": "Feature", "properties": { "id": "1396", "nom": "Champion de Cicé", "codeinseecommune": "35238", "mobilier": "Abri double" }, "geometry": { "type": "Point", "coordinates": [ -1.705012, 48.102203 ] } },
{ "type": "Feature", "properties": { "id": "1405", "nom": "Europe", "codeinseecommune": "35238", "mobilier": "Abri simple" }, "geometry": { "type": "Point", "coordinates": [ -1.657061, 48.128435 ] } },
{ "type": "Feature", "properties": { "id": "1410", "nom": "Hélias", "codeinseecommune": "35238", "mobilier": "Abri simple" }, "geometry": { "type": "Point", "coordinates": [ -1.662498, 48.136505 ] } },
{ "type": "Feature", "properties": { "id": "1411", "nom": "Bellangerais", "codeinseecommune": "35238", "mobilier": "Abri simple" }, "geometry": { "type": "Point", "coordinates": [ -1.672892, 48.132095 ] } },
{ "type": "Feature", "properties": { "id": "1422", "nom": "Merlin", "codeinseecommune": "35238", "mobilier": "Abri simple" }, "geometry": { "type": "Point", "coordinates": [ -1.711298, 48.116267 ] } },
{ "type": "Feature", "properties": { "id": "1423", "nom": "Villejean-Churchill", "codeinseecommune": "35238", "mobilier": "Abri simple" }, "geometry": { "type": "Point", "coordinates": [ -1.708147, 48.118491 ] } },
{ "type": "Feature", "properties": { "id": "1424", "nom": "Cours Kennedy", "codeinseecommune": "35238", "mobilier": "Abri simple" }, "geometry": { "type": "Point", "coordinates": [ -1.707935, 48.121246 ] } },
{ "type": "Feature", "properties": { "id": "1428", "nom": "Hôtel de Région", "codeinseecommune": "35238", "mobilier": "Abri simple" }, "geometry": { "type": "Point", "coordinates": [ -1.658625, 48.134522 ] } },
{ "type": "Feature", "properties": { "id": "1451", "nom": "Lycée Bréquigny", "codeinseecommune": "35238", "mobilier": "Abri simple" }, "geometry": { "type": "Point", "coordinates": [ -1.691327, 48.086866 ] } },
{ "type": "Feature", "properties": { "id": "1454", "nom": "Bréquigny Piscine", "codeinseecommune": "35238", "mobilier": "Abri simple" }, "geometry": { "type": "Point", "coordinates": [ -1.691241, 48.089581 ] } },
{ "type": "Feature", "properties": { "id": "1455", "nom": "Lycée Bréquigny", "codeinseecommune": "35238", "mobilier": "Abri simple" }, "geometry": { "type": "Point", "coordinates": [ -1.690976, 48.086692 ] } },
{ "type": "Feature", "properties": { "id": "1460", "nom": "Argonautes", "codeinseecommune": "35238", "mobilier": "Abri simple" }, "geometry": { "type": "Point", "coordinates": [ -1.67416, 48.091264 ] } },
{ "type": "Feature", "properties": { "id": "1464", "nom": "Binquenais", "codeinseecommune": "35238", "mobilier": "Abri simple" }, "geometry": { "type": "Point", "coordinates": [ -1.666266, 48.091301 ] } },
{ "type": "Feature", "properties": { "id": "1469", "nom": "Le Dantec", "codeinseecommune": "35238", "mobilier": "Abri simple" }, "geometry": { "type": "Point", "coordinates": [ -1.652475, 48.099274 ] } },
{ "type": "Feature", "properties": { "id": "1470", "nom": "Villebois-Mareuil", "codeinseecommune": "35238", "mobilier": "Abri simple" }, "geometry": { "type": "Point", "coordinates": [ -1.651034, 48.100844 ] } },
{ "type": "Feature", "properties": { "id": "1484", "nom": "ZA Saint-Sulpice", "codeinseecommune": "35238", "mobilier": "Abri simple" }, "geometry": { "type": "Point", "coordinates": [ -1.635917, 48.13186 ] } },
{ "type": "Feature", "properties": { "id": "1495", "nom": "Département 35", "codeinseecommune": "35238", "mobilier": "Abri simple" }, "geometry": { "type": "Point", "coordinates": [ -1.693071, 48.126724 ] } },
{ "type": "Feature", "properties": { "id": "1508", "nom": "Berthault", "codeinseecommune": "35238", "mobilier": "Abri auvent" }, "geometry": { "type": "Point", "coordinates": [ -1.729101, 48.106699 ] } },
{ "type": "Feature", "properties": { "id": "1520", "nom": "Bourbonnais", "codeinseecommune": "35238", "mobilier": "Abri simple" }, "geometry": { "type": "Point", "coordinates": [ -1.709544, 48.120479 ] } },
{ "type": "Feature", "properties": { "id": "1543", "nom": "Léonard", "codeinseecommune": "35238", "mobilier": "Abri simple" }, "geometry": { "type": "Point", "coordinates": [ -1.691874, 48.131322 ] } },
{ "type": "Feature", "properties": { "id": "1545", "nom": "Cleunay Stade", "codeinseecommune": "35238", "mobilier": "Poteau" }, "geometry": { "type": "Point", "coordinates": [ -1.708422, 48.101549 ] } },
{ "type": "Feature", "properties": { "id": "1553", "nom": "Villejean-Université", "codeinseecommune": "35238", "mobilier": "Abri simple" }, "geometry": { "type": "Point", "coordinates": [ -1.702339, 48.121297 ] } },
{ "type": "Feature", "properties": { "id": "1565", "nom": "Lycée Basch", "codeinseecommune": "35238", "mobilier": "Abri simple" }, "geometry": { "type": "Point", "coordinates": [ -1.692442, 48.12532 ] } },
{ "type": "Feature", "properties": { "id": "1568", "nom": "Kennedy Guyenne", "codeinseecommune": "35238", "mobilier": "Abri simple" }, "geometry": { "type": "Point", "coordinates": [ -1.713571, 48.121028 ] } },
{ "type": "Feature", "properties": { "id": "1590", "nom": "Jules Verne", "codeinseecommune": "35238", "mobilier": "Abri simple" }, "geometry": { "type": "Point", "coordinates": [ -1.693043, 48.099062 ] } },
{ "type": "Feature", "properties": { "id": "1605", "nom": "Pont de Strasbourg", "codeinseecommune": "35238", "mobilier": "Abri double" }, "geometry": { "type": "Point", "coordinates": [ -1.656484, 48.110143 ] } },
{ "type": "Feature", "properties": { "id": "1612", "nom": "Saint-Conwoïon", "codeinseecommune": "35238", "mobilier": "Abri simple" }, "geometry": { "type": "Point", "coordinates": [ -1.688364, 48.103608 ] } },
{ "type": "Feature", "properties": { "id": "1625", "nom": "Armorique", "codeinseecommune": "35238", "mobilier": "Abri simple" }, "geometry": { "type": "Point", "coordinates": [ -1.675887, 48.130707 ] } },
{ "type": "Feature", "properties": { "id": "1640", "nom": "Lycée Mendès France", "codeinseecommune": "35238", "mobilier": "Poteau" }, "geometry": { "type": "Point", "coordinates": [ -1.684561, 48.133668 ] } },
{ "type": "Feature", "properties": { "id": "1655", "nom": "Motte Brûlon", "codeinseecommune": "35238", "mobilier": "Abri simple" }, "geometry": { "type": "Point", "coordinates": [ -1.673847, 48.129935 ] } },
{ "type": "Feature", "properties": { "id": "1659", "nom": "Henri Fréville", "codeinseecommune": "35238", "mobilier": "Poteau" }, "geometry": { "type": "Point", "coordinates": [ -1.675501, 48.086752 ] } },
{ "type": "Feature", "properties": { "id": "1661", "nom": "Coubertin", "codeinseecommune": "35238", "mobilier": "Abri simple" }, "geometry": { "type": "Point", "coordinates": [ -1.68666, 48.086528 ] } },
{ "type": "Feature", "properties": { "id": "1662", "nom": "Gare Sud Féval", "codeinseecommune": "35238", "mobilier": "Abri simple" }, "geometry": { "type": "Point", "coordinates": [ -1.676529, 48.10293 ] } },
{ "type": "Feature", "properties": { "id": "1668", "nom": "Coubertin", "codeinseecommune": "35238", "mobilier": "Abri simple" }, "geometry": { "type": "Point", "coordinates": [ -1.688999, 48.086601 ] } },
{ "type": "Feature", "properties": { "id": "1669", "nom": "Villejean-Université", "codeinseecommune": "35238", "mobilier": "Abri simple" }, "geometry": { "type": "Point", "coordinates": [ -1.705587, 48.121347 ] } },
{ "type": "Feature", "properties": { "id": "1671", "nom": "La Harpe", "codeinseecommune": "35238", "mobilier": "Abri simple" }, "geometry": { "type": "Point", "coordinates": [ -1.710334, 48.125681 ] } },
{ "type": "Feature", "properties": { "id": "1681", "nom": "La Harpe", "codeinseecommune": "35238", "mobilier": "Abri simple" }, "geometry": { "type": "Point", "coordinates": [ -1.710391, 48.125455 ] } },
{ "type": "Feature", "properties": { "id": "1705", "nom": "Fossés", "codeinseecommune": "35238", "mobilier": "Abri simple" }, "geometry": { "type": "Point", "coordinates": [ -1.675156, 48.11329 ] } },
{ "type": "Feature", "properties": { "id": "1709", "nom": "Gros-Chêne", "codeinseecommune": "35238", "mobilier": "Abri simple" }, "geometry": { "type": "Point", "coordinates": [ -1.663499, 48.125175 ] } },
{ "type": "Feature", "properties": { "id": "1711", "nom": "Joliot-Curie - Chateaubriand", "codeinseecommune": "35238", "mobilier": "Abri double" }, "geometry": { "type": "Point", "coordinates": [ -1.651532, 48.123666 ] } },
{ "type": "Feature", "properties": { "id": "1715", "nom": "Mabilais", "codeinseecommune": "35238", "mobilier": "Poteau" }, "geometry": { "type": "Point", "coordinates": [ -1.691929, 48.105032 ] } },
{ "type": "Feature", "properties": { "id": "1726", "nom": "Les Gayeulles", "codeinseecommune": "35238", "mobilier": "Abri simple" }, "geometry": { "type": "Point", "coordinates": [ -1.656723, 48.129937 ] } },
{ "type": "Feature", "properties": { "id": "1736", "nom": "Leray", "codeinseecommune": "35238", "mobilier": "Abri simple" }, "geometry": { "type": "Point", "coordinates": [ -1.661936, 48.095662 ] } },
{ "type": "Feature", "properties": { "id": "1750", "nom": "Hoche", "codeinseecommune": "35238", "mobilier": "Poteau" }, "geometry": { "type": "Point", "coordinates": [ -1.677154, 48.11367 ] } },
{ "type": "Feature", "properties": { "id": "2015", "nom": "Hublais", "codeinseecommune": "35051", "mobilier": "Abri simple" }, "geometry": { "type": "Point", "coordinates": [ -1.616353, 48.114247 ] } },
{ "type": "Feature", "properties": { "id": "2023", "nom": "Vilaine", "codeinseecommune": "35051", "mobilier": "Abri simple" }, "geometry": { "type": "Point", "coordinates": [ -1.607203, 48.115515 ] } },
{ "type": "Feature", "properties": { "id": "2025", "nom": "Maison d'Accueil", "codeinseecommune": "35051", "mobilier": "Poteau" }, "geometry": { "type": "Point", "coordinates": [ -1.609892, 48.12125 ] } },
{ "type": "Feature", "properties": { "id": "2037", "nom": "Erbonière", "codeinseecommune": "35051", "mobilier": "Poteau" }, "geometry": { "type": "Point", "coordinates": [ -1.625652, 48.106038 ] } },
{ "type": "Feature", "properties": { "id": "2048", "nom": "Cormier", "codeinseecommune": "35051", "mobilier": "Poteau" }, "geometry": { "type": "Point", "coordinates": [ -1.617618, 48.124466 ] } },
{ "type": "Feature", "properties": { "id": "2050", "nom": "Cesson Collège", "codeinseecommune": "35051", "mobilier": "Abri simple" }, "geometry": { "type": "Point", "coordinates": [ -1.599292, 48.120327 ] } },
{ "type": "Feature", "properties": { "id": "2054", "nom": "Métairies Chalotais", "codeinseecommune": "35051", "mobilier": "Abri simple" }, "geometry": { "type": "Point", "coordinates": [ -1.602015, 48.123044 ] } },
{ "type": "Feature", "properties": { "id": "2060", "nom": "Rond Point de Bray", "codeinseecommune": "35051", "mobilier": "Abri simple" }, "geometry": { "type": "Point", "coordinates": [ -1.614694, 48.107814 ] } },
{ "type": "Feature", "properties": { "id": "2061", "nom": "Charmilles", "codeinseecommune": "35051", "mobilier": "Abri simple" }, "geometry": { "type": "Point", "coordinates": [ -1.621228, 48.106517 ] } },
{ "type": "Feature", "properties": { "id": "2068", "nom": "Métairies Chalotais", "codeinseecommune": "35051", "mobilier": "Poteau" },