{
"type": "FeatureCollection",
"name": "lycee_point",
"crs": { "type": "name", "properties": { "name": "urn:ogc:def:crs:OGC:1.3:CRS84" } },
"xy_coordinate_resolution": 1e-15,
"features": [
{ "type": "Feature", "properties": { "osm_id": "1098293084", "school:FR": "lycée", "name": "Lycée La Providence" }, "geometry": { "type": "Point", "coordinates": [ -1.968650705620541, 48.65429105 ] } },
{ "type": "Feature", "properties": { "osm_id": "32887667", "school:FR": "lycée", "name": "Lycée général et technologique Victor et Hélène Basch" }, "geometry": { "type": "Point", "coordinates": [ -1.690758627973295, 48.12563265 ] } },
{ "type": "Feature", "properties": { "osm_id": "679400068", "school:FR": "lycée", "name": "Lycée Jean Jaurès" }, "geometry": { "type": "Point", "coordinates": [ -1.688024596430501, 48.0919542 ] } },
{ "type": "Feature", "properties": { "osm_id": "229870737", "school:FR": "lycée", "name": "Lycée Chateaubriand" }, "geometry": { "type": "Point", "coordinates": [ -1.649023200810376, 48.12343245 ] } },
{ "type": "Feature", "properties": { "osm_id": "30715801", "school:FR": "lycée", "name": "Lycée général et technologique René Descartes" }, "geometry": { "type": "Point", "coordinates": [ -1.642428136953962, 48.0883847 ] } },
{ "type": "Feature", "properties": { "osm_id": "425115198", "school:FR": "lycée", "name": "Lycée Jean Marie de la Mennais" }, "geometry": { "type": "Point", "coordinates": [ -1.385817748336704, 47.91631835 ] } },
{ "type": "Feature", "properties": { "osm_id": "625792104", "school:FR": "lycée", "name": "Lycée Saint-Étienne - Lycée Frédéric Ozanam" }, "geometry": { "type": "Point", "coordinates": [ -1.59879417739726, 48.12940725 ] } },
{ "type": "Feature", "properties": { "osm_id": "424919845", "school:FR": "lycée", "name": "Lycée Sévigné" }, "geometry": { "type": "Point", "coordinates": [ -1.598929401541426, 48.11612575 ] } },
{ "type": "Feature", "properties": { "osm_id": "141794765", "school:FR": "lycée", "name": "Lycée général et technologique Maupertuis" }, "geometry": { "type": "Point", "coordinates": [ -2.005642066651514, 48.64065225 ] } },
{ "type": "Feature", "properties": { "osm_id": "243209871", "school:FR": "lycée", "name": "Lycée Jean Brito" }, "geometry": { "type": "Point", "coordinates": [ -1.691454285079666, 47.8483184 ] } },
{ "type": "Feature", "properties": { "osm_id": "422809972", "school:FR": "lycée", "name": "Lycée Marcel Callo" }, "geometry": { "type": "Point", "coordinates": [ -2.081833595218654, 47.6549744 ] } },
{ "type": "Feature", "properties": { "osm_id": "614164938", "school:FR": "lycée", "name": "Lycée des métiers Bel air" }, "geometry": { "type": "Point", "coordinates": [ -1.825757739770587, 48.3321491 ] } },
{ "type": "Feature", "properties": { "osm_id": "585223516", "school:FR": "lycée", "name": "Lycée polyvalent La Providence" }, "geometry": { "type": "Point", "coordinates": [ -2.044224032086965, 48.1967598 ] } },
{ "type": "Feature", "properties": { "osm_id": "585223515", "school:FR": "lycée", "name": "Lycée technologique agricole privé Saint-Nicolas-La Providence" }, "geometry": { "type": "Point", "coordinates": [ -2.045074338503781, 48.19728485 ] } },
{ "type": "Feature", "properties": { "osm_id": "4980479", "school:FR": "lycée", "name": "Lycée Joliot-Curie" }, "geometry": { "type": "Point", "coordinates": [ -1.648158489470506, 48.1260337 ] } },
{ "type": "Feature", "properties": { "osm_id": "431371584", "school:FR": "lycée", "name": "Lycée agricole de Saint-Aubin-du-Cormier" }, "geometry": { "type": "Point", "coordinates": [ -1.426735806287623, 48.2658306 ] } },
{ "type": "Feature", "properties": { "osm_id": "431371583", "school:FR": "lycée", "name": "Lycée agricole JB Le Taillandier" }, "geometry": { "type": "Point", "coordinates": [ -1.395530009922574, 48.2572725 ] } },
{ "type": "Feature", "properties": { "osm_id": "357010152", "school:FR": "lycée", "name": "Lycée Public Maritime Florence Arthaud" }, "geometry": { "type": "Point", "coordinates": [ -1.96866612163526, 48.65575065 ] } },
{ "type": "Feature", "properties": { "osm_id": "12444620", "school:FR": "lycée", "name": "L'Institution" }, "geometry": { "type": "Point", "coordinates": [ -2.025584403021442, 48.6502545 ] } },
{ "type": "Feature", "properties": { "osm_id": "11116714", "school:FR": "lycée", "name": "Lycée général et technologique Jean Guéhenno" }, "geometry": { "type": "Point", "coordinates": [ -1.199324147655359, 48.348056 ] } },
{ "type": "Feature", "properties": { "osm_id": "561233631", "school:FR": "lycée", "name": "Lycée privé Jean-Baptiste Le Taillandier - site Edmond Michelet" }, "geometry": { "type": "Point", "coordinates": [ -1.201202663081675, 48.3678448 ] } },
{ "type": "Feature", "properties": { "osm_id": "351668036", "school:FR": "lycée", "name": "Lycée professionnel Louis Guilloux" }, "geometry": { "type": "Point", "coordinates": [ -1.631067480699649, 48.1252617 ] } },
{ "type": "Feature", "properties": { "osm_id": "207427974", "school:FR": "lycée", "name": "Lycée général et technologique Bréquigny" }, "geometry": { "type": "Point", "coordinates": [ -1.687629783068358, 48.08478935 ] } },
{ "type": "Feature", "properties": { "osm_id": "276465025", "school:FR": "lycée", "name": "Lycée privé Les Rimains" }, "geometry": { "type": "Point", "coordinates": [ -2.003692478914327, 48.6477014 ] } },
{ "type": "Feature", "properties": { "osm_id": "232690437", "school:FR": "lycée", "name": "Lycée Bertrand d'Argentré" }, "geometry": { "type": "Point", "coordinates": [ -1.212707910406176, 48.119318 ] } },
{ "type": "Feature", "properties": { "osm_id": "7535721", "school:FR": "lycée", "name": "Lycée général et technologique privé Saint-Martin" }, "geometry": { "type": "Point", "coordinates": [ -1.67936734194249, 48.1166472 ] } },
{ "type": "Feature", "properties": { "osm_id": "56067767", "school:FR": "lycée", "name": "Lycée général et technologique René Cassin" }, "geometry": { "type": "Point", "coordinates": [ -1.963053175052447, 48.14238155 ] } },
{ "type": "Feature", "properties": { "osm_id": "55458272", "school:FR": "lycée", "name": "Lycée d'enseignement général et technologique Jean Macé" }, "geometry": { "type": "Point", "coordinates": [ -1.670448513470588, 48.11709365 ] } },
{ "type": "Feature", "properties": { "osm_id": "55277989", "school:FR": "lycée", "name": "Lycée Jacques Cartier" }, "geometry": { "type": "Point", "coordinates": [ -2.001000143302853, 48.62920855 ] } },
{ "type": "Feature", "properties": { "osm_id": "232522241", "school:FR": "lycée", "name": "Lycée Technologique et Professionnel Jeanne d'Arc" }, "geometry": { "type": "Point", "coordinates": [ -1.209343840286738, 48.1187273 ] } },
{ "type": "Feature", "properties": { "osm_id": "6157918", "school:FR": "lycée", "name": "Lycée Jeanne d'Arc" }, "geometry": { "type": "Point", "coordinates": [ -1.654059186766316, 48.1192232 ] } },
{ "type": "Feature", "properties": { "osm_id": "202077362", "school:FR": "lycée", "name": "Lycée Hôtelier Yvon Bourges" }, "geometry": { "type": "Point", "coordinates": [ -2.057701677712808, 48.62498015 ] } },
{ "type": "Feature", "properties": { "osm_id": "402184590", "school:FR": "lycée", "name": "Lycée Jean-Baptiste Le Taillandier Site Saint-Joseph" }, "geometry": { "type": "Point", "coordinates": [ -1.207850428714513, 48.3661387 ] } },
{ "type": "Feature", "properties": { "osm_id": "268875998", "school:FR": "lycée", "name": "Lycée général privé Assomption" }, "geometry": { "type": "Point", "coordinates": [ -1.658091973850571, 48.12214275 ] } },
{ "type": "Feature", "properties": { "osm_id": "266086784", "school:FR": "lycée", "name": "Lycée Jean-Baptiste de La Salle" }, "geometry": { "type": "Point", "coordinates": [ -1.668910141499875, 48.12505015 ] } },
{ "type": "Feature", "properties": { "osm_id": "653538660", "school:FR": "lycée", "name": "Lycée général privé Saint-Joseph" }, "geometry": { "type": "Point", "coordinates": [ -1.743801718638691, 48.0281449 ] } },
{ "type": "Feature", "properties": { "osm_id": "265935598", "school:FR": "lycée", "name": "Lycée professionnel Coëtlogon" }, "geometry": { "type": "Point", "coordinates": [ -1.694389704213376, 48.12293985 ] } },
{ "type": "Feature", "properties": { "osm_id": "263513207", "school:FR": "lycée", "name": "Lycée général et technologique privé Saint-Sauveur" }, "geometry": { "type": "Point", "coordinates": [ -2.078706943268728, 47.65187165 ] } },
{ "type": "Feature", "properties": { "osm_id": "640825280", "school:FR": "lycée", "name": "Lycée général et technologique Anita Conti" }, "geometry": { "type": "Point", "coordinates": [ -1.735569363213032, 48.0328604 ] } },
{ "type": "Feature", "properties": { "osm_id": "263420539", "school:FR": "lycée", "name": "Lycée Saint-Sauveur" }, "geometry": { "type": "Point", "coordinates": [ -2.083535414992227, 47.64989795 ] } },
{ "type": "Feature", "properties": { "osm_id": "339742200", "school:FR": "lycée", "name": "Lycée agricole privé Saint-Yves de Bain-de-Bretagne" }, "geometry": { "type": "Point", "coordinates": [ -1.670954248499504, 47.83571245 ] } },
{ "type": "Feature", "properties": { "osm_id": "335894543", "school:FR": "lycée", "name": "Lycée professionnel Jean Guéhenno" }, "geometry": { "type": "Point", "coordinates": [ -1.199453128628462, 48.3419943 ] } },
{ "type": "Feature", "properties": { "osm_id": "44372218", "school:FR": "lycée", "name": "Lycée Émile Zola" }, "geometry": { "type": "Point", "coordinates": [ -1.675025344179751, 48.10868015 ] } },
{ "type": "Feature", "properties": { "osm_id": "490763342", "school:FR": "lycée", "name": "Lycée professionnel Alphonse Pellé" }, "geometry": { "type": "Point", "coordinates": [ -1.765202763153732, 48.54410305 ] } },
{ "type": "Feature", "properties": { "osm_id": "255190039", "school:FR": "lycée", "name": "Lycée Pierre Mendès-France" }, "geometry": { "type": "Point", "coordinates": [ -1.682397152716965, 48.13472955 ] } },
{ "type": "Feature", "properties": { "osm_id": "179978047", "school:FR": "lycée", "name": "The Land" }, "geometry": { "type": "Point", "coordinates": [ -1.711101289933279, 48.1313969 ] } },
{ "type": "Feature", "properties": { "osm_id": "324321032", "school:FR": "lycée", "name": "Lycée professionnel Charles Tillon - Site Robidou" }, "geometry": { "type": "Point", "coordinates": [ -1.660160577604288, 48.10755385 ] } },
{ "type": "Feature", "properties": { "osm_id": "324321031", "school:FR": "lycée", "name": "Lycée professionnel Charles Tillon - Site Laënnec" }, "geometry": { "type": "Point", "coordinates": [ -1.665184355209431, 48.1094104 ] } },
{ "type": "Feature", "properties": { "osm_id": "389867325", "school:FR": "lycée", "name": "Lycée général et agricole Théodore Monod" }, "geometry": { "type": "Point", "coordinates": [ -1.807230355025017, 48.0995722 ] } },
{ "type": "Feature", "properties": { "osm_id": "164577570", "school:FR": "lycée", "name": "Lycée professionnel La Champagne - Lycée des métiers" }, "geometry": { "type": "Point", "coordinates": [ -1.230461471043547, 48.1213057 ] } }
]
}
